{
"type": "FeatureCollection",
"name": "weather-average-points",
"features": [
{ "type": "Feature", "properties": { "continent": "Africa", "country": "Algeria", "place": "Oran", "address": "Oran Algeria Africa" }, "geometry": { "type": "Point", "coordinates": [ 19.057660000000102, -32.3731 ] } },
{ "type": "Feature", "properties": { "continent": "Africa", "country": "Algeria", "place": "Constantine", "address": "Constantine Algeria Africa" }, "geometry": { "type": "Point", "coordinates": [ 6.61472, 36.365000000000101 ] } },
{ "type": "Feature", "properties": { "continent": "Africa", "country": "Algeria", "place": "Blida", "address": "Blida Algeria Africa" }, "geometry": { "type": "Point", "coordinates": [ 19.057660000000102, -32.3731 ] } },
{ "type": "Feature", "properties": { "continent": "Africa", "country": "Algeria", "place": "Batna", "address": "Batna Algeria Africa" }, "geometry": { "type": "Point", "coordinates": [ 19.057660000000102, -32.3731 ] } },
{ "type": "Feature", "properties": { "continent": "Africa", "country": "Angola", "place": "Luanda", "address": "Luanda Angola Africa" }, "geometry": { "type": "Point", "coordinates": [ 13.203800000000101, -8.88906 ] } },
{ "type": "Feature", "properties": { "continent": "Africa", "country": "Angola", "place": "Lobito", "address": "Lobito Angola Africa" }, "geometry": { "type": "Point", "coordinates": [ 13.5508, -12.372729999999899 ] } },
{ "type": "Feature", "properties": { "continent": "Africa", "country": "Botswana", "place": "Palapye", "address": "Palapye Botswana Africa" }, "geometry": { "type": "Point", "coordinates": [ 27.09649, -22.522849999999899 ] } },
{ "type": "Feature", "properties": { "continent": "Africa", "country": "Burkina Faso", "place": "Ouagadougou", "address": "Ouagadougou Burkina Faso Africa" }, "geometry": { "type": "Point", "coordinates": [ -1.5271, 12.36857 ] } },
{ "type": "Feature", "properties": { "continent": "Africa", "country": "Cameroon", "place": "Douala", "address": "Douala Cameroon Africa" }, "geometry": { "type": "Point", "coordinates": [ 9.69497, 4.04777 ] } },
{ "type": "Feature", "properties": { "continent": "Africa", "country": "Cameroon", "place": "Yaounde", "address": "Yaounde Cameroon Africa" }, "geometry": { "type": "Point", "coordinates": [ 11.5202600000001, 3.84675 ] } },
{ "type": "Feature", "properties": { "continent": "Africa", "country": "Cameroon", "place": "Dschang", "address": "Dschang Cameroon Africa" }, "geometry": { "type": "Point", "coordinates": [ 10.05483, 5.45152 ] } },
{ "type": "Feature", "properties": { "continent": "Africa", "country": "Cape Verde", "place": "São Filipe", "address": "São Filipe Cape Verde Africa" }, "geometry": { "type": "Point", "coordinates": [ -24.490369999999899, 14.90279 ] } },
{ "type": "Feature", "properties": { "continent": "Africa", "country": "Cape Verde", "place": "Mindelo", "address": "Mindelo Cape Verde Africa" }, "geometry": { "type": "Point", "coordinates": [ -24.98909, 16.877410000000101 ] } },
{ "type": "Feature", "properties": { "continent": "Africa", "country": "Cape Verde", "place": "(Chã das Caldeiras) destroyed by lava", "address": "(Chã das Caldeiras) destroyed by lava Cape Verde Africa" }, "geometry": { "type": "Point", "coordinates": [ -24.36667, 14.93333 ] } },
{ "type": "Feature", "properties": { "continent": "Africa", "country": "Chad", "place": "N'Djamena", "address": "N'Djamena Chad Africa" }, "geometry": { "type": "Point", "coordinates": [ 15.0491200000001, 12.1131500000001 ] } },
{ "type": "Feature", "properties": { "continent": "Africa", "country": "Comoros", "place": "Mutsamudu", "address": "Mutsamudu Comoros Africa" }, "geometry": { "type": "Point", "coordinates": [ 44.403550000000102, -12.161069999999899 ] } },
{ "type": "Feature", "properties": { "continent": "Africa", "country": "Congo-Brazzaville", "place": "Pointe-Noire", "address": "Pointe-Noire Congo-Brazzaville Africa" }, "geometry": { "type": "Point", "coordinates": [ 11.863520000000101, -4.77609 ] } },
{ "type": "Feature", "properties": { "continent": "Africa", "country": "Congo-Brazzaville", "place": "Brazzaville", "address": "Brazzaville Congo-Brazzaville Africa" }, "geometry": { "type": "Point", "coordinates": [ 15.2844200000001, -4.27535 ] } },
{ "type": "Feature", "properties": { "continent": "Africa", "country": "Congo-Kinshasa", "place": "Kinshasa", "address": "Kinshasa Congo-Kinshasa Africa" }, "geometry": { "type": "Point", "coordinates": [ 15.30807, -4.32142 ] } },
{ "type": "Feature", "properties": { "continent": "Africa", "country": "Congo-Kinshasa", "place": "Lubumbashi", "address": "Lubumbashi Congo-Kinshasa Africa" }, "geometry": { "type": "Point", "coordinates": [ 27.47938, -11.66089 ] } },
{ "type": "Feature", "properties": { "continent": "Africa", "country": "Côte d'Ivoire", "place": "Abidjan", "address": "Abidjan Côte d'Ivoire Africa" }, "geometry": { "type": "Point", "coordinates": [ -4.02173, 5.3269 ] } },
{ "type": "Feature", "properties": { "continent": "Africa", "country": "Côte d'Ivoire", "place": "Abobo", "address": "Abobo Côte d'Ivoire Africa" }, "geometry": { "type": "Point", "coordinates": [ -4.70722, 7.24083 ] } },
{ "type": "Feature", "properties": { "continent": "Africa", "country": "Côte d'Ivoire", "place": "Yopougon", "address": "Yopougon Côte d'Ivoire Africa" }, "geometry": { "type": "Point", "coordinates": [ -5.55472858799993, 7.62918254100003 ] } },
{ "type": "Feature", "properties": { "continent": "Africa", "country": "Côte d'Ivoire", "place": "Bouaké", "address": "Bouaké Côte d'Ivoire Africa" }, "geometry": { "type": "Point", "coordinates": [ -5.0303, 7.6909 ] } },
{ "type": "Feature", "properties": { "continent": "Africa", "country": "Côte d'Ivoire", "place": "Marcory", "address": "Marcory Côte d'Ivoire Africa" }, "geometry": { "type": "Point", "coordinates": [ -5.55472858799993, 7.62918254100003 ] } },
{ "type": "Feature", "properties": { "continent": "Africa", "country": "Djibouti", "place": "Djibouti", "address": "Djibouti Djibouti Africa" }, "geometry": { "type": "Point", "coordinates": [ 43.14487, 11.5880700000001 ] } },
{ "type": "Feature", "properties": { "continent": "Africa", "country": "Egypt", "place": "Cairo", "address": "Cairo Egypt Africa" }, "geometry": { "type": "Point", "coordinates": [ 31.3760300000001, 30.0466300000001 ] } },
{ "type": "Feature", "properties": { "continent": "Africa", "country": "Egypt", "place": "Alexandria", "address": "Alexandria Egypt Africa" }, "geometry": { "type": "Point", "coordinates": [ 29.95165, 31.2278400000001 ] } },
{ "type": "Feature", "properties": { "continent": "Africa", "country": "Egypt", "place": "Giza", "address": "Giza Egypt Africa" }, "geometry": { "type": "Point", "coordinates": [ 31.210550000000101, 30.060310000000101 ] } },
{ "type": "Feature", "properties": { "continent": "Africa", "country": "Egypt", "place": "Port Said", "address": "Port Said Egypt Africa" }, "geometry": { "type": "Point", "coordinates": [ 32.28612, 31.2600400000001 ] } },
{ "type": "Feature", "properties": { "continent": "Africa", "country": "Eritrea", "place": "Asmara", "address": "Asmara Eritrea Africa" }, "geometry": { "type": "Point", "coordinates": [ 38.93692, 15.3363800000001 ] } },
{ "type": "Feature", "properties": { "continent": "Africa", "country": "Ethiopia", "place": "Addis Abeba", "address": "Addis Abeba Ethiopia Africa" }, "geometry": { "type": "Point", "coordinates": [ 38.763480000000101, 9.01461 ] } },
{ "type": "Feature", "properties": { "continent": "Africa", "country": "Ethiopia", "place": "Adama", "address": "Adama Ethiopia Africa" }, "geometry": { "type": "Point", "coordinates": [ 30.54837, -22.835709999999899 ] } },
{ "type": "Feature", "properties": { "continent": "Africa", "country": "Ethiopia", "place": "Gonder", "address": "Gonder Ethiopia Africa" }, "geometry": { "type": "Point", "coordinates": [ 37.4666700000001, 12.6 ] } },
{ "type": "Feature", "properties": { "continent": "Africa", "country": "Ethiopia", "place": "Mek'elē", "address": "Mek'elē Ethiopia Africa" }, "geometry": { "type": "Point", "coordinates": [ 39.47353, 13.49614 ] } },
{ "type": "Feature", "properties": { "continent": "Africa", "country": "Ghana", "place": "Accra", "address": "Accra Ghana Africa" }, "geometry": { "type": "Point", "coordinates": [ -0.23261, 5.57888 ] } },
{ "type": "Feature", "properties": { "continent": "Africa", "country": "Ghana", "place": "Kumasi", "address": "Kumasi Ghana Africa" }, "geometry": { "type": "Point", "coordinates": [ -1.61942, 6.66928 ] } },
{ "type": "Feature", "properties": { "continent": "Africa", "country": "Ghana", "place": "Sunyani", "address": "Sunyani Ghana Africa" }, "geometry": { "type": "Point", "coordinates": [ -2.31095, 7.34391 ] } },
{ "type": "Feature", "properties": { "continent": "Africa", "country": "Guinea", "place": "Conakry", "address": "Conakry Guinea Africa" }, "geometry": { "type": "Point", "coordinates": [ -13.65697, 9.57538 ] } },
{ "type": "Feature", "properties": { "continent": "Africa", "country": "Kenya", "place": "Nairobi", "address": "Nairobi Kenya Africa" }, "geometry": { "type": "Point", "coordinates": [ 36.809640000000101, -1.32069 ] } },
{ "type": "Feature", "properties": { "continent": "Africa", "country": "Kenya", "place": "Malindi", "address": "Malindi Kenya Africa" }, "geometry": { "type": "Point", "coordinates": [ 40.1146600000001, -3.21575 ] } },
{ "type": "Feature", "properties": { "continent": "Africa", "country": "Kenya", "place": "Nanyuki", "address": "Nanyuki Kenya Africa" }, "geometry": { "type": "Point", "coordinates": [ 37.07859, 0.01482 ] } },
{ "type": "Feature", "properties": { "continent": "Africa", "country": "Liberia", "place": "Monrovia", "address": "Monrovia Liberia Africa" }, "geometry": { "type": "Point", "coordinates": [ -10.80213, 6.31672 ] } },
{ "type": "Feature", "properties": { "continent": "Africa", "country": "Madagascar", "place": "Antananarivo", "address": "Antananarivo Madagascar Africa" }, "geometry": { "type": "Point", "coordinates": [ 47.52736, -18.91003 ] } },
{ "type": "Feature", "properties": { "continent": "Africa", "country": "Madagascar", "place": "Antsirabe", "address": "Antsirabe Madagascar Africa" }, "geometry": { "type": "Point", "coordinates": [ 47.033740000000101, -19.86296 ] } },
{ "type": "Feature", "properties": { "continent": "Africa", "country": "Madagascar", "place": "Mahajanga", "address": "Mahajanga Madagascar Africa" }, "geometry": { "type": "Point", "coordinates": [ 46.33934, -15.71427 ] } },
{ "type": "Feature", "properties": { "continent": "Africa", "country": "Madagascar", "place": "Toliara", "address": "Toliara Madagascar Africa" }, "geometry": { "type": "Point", "coordinates": [ 43.66536, -23.35015 ] } },
{ "type": "Feature", "properties": { "continent": "Africa", "country": "Madagascar", "place": "Antsiranana", "address": "Antsiranana Madagascar Africa" }, "geometry": { "type": "Point", "coordinates": [ 49.294420000000102, -12.3106 ] } },
{ "type": "Feature", "properties": { "continent": "Africa", "country": "Mali", "place": "Bamako", "address": "Bamako Mali Africa" }, "geometry": { "type": "Point", "coordinates": [ -8.00004, 12.65039 ] } },
{ "type": "Feature", "properties": { "continent": "Africa", "country": "Mauritania", "place": "Nouakchott", "address": "Nouakchott Mauritania Africa" }, "geometry": { "type": "Point", "coordinates": [ -15.97248, 18.09193 ] } },
{ "type": "Feature", "properties": { "continent": "Africa", "country": "Mauritania", "place": "Nouadhibou", "address": "Nouadhibou Mauritania Africa" }, "geometry": { "type": "Point", "coordinates": [ -17.03465, 20.93098 ] } },
{ "type": "Feature", "properties": { "continent": "Africa", "country": "Mauritius", "place": "Port Louis", "address": "Port Louis Mauritius Africa" }, "geometry": { "type": "Point", "coordinates": [ 57.51491, -20.16544 ] } },
{ "type": "Feature", "properties": { "continent": "Africa", "country": "Mauritius", "place": "Mahebourg", "address": "Mahebourg Mauritius Africa" }, "geometry": { "type": "Point", "coordinates": [ 57.7, -20.40806 ] } },
{ "type": "Feature", "properties": { "continent": "Africa", "country": "Mauritius", "place": "Grand Baie", "address": "Grand Baie Mauritius Africa" }, "geometry": { "type": "Point", "coordinates": [ 57.584470000000103, -20.01127 ] } },
{ "type": "Feature", "properties": { "continent": "Africa", "country": "Mauritius", "place": "Port Mathurin", "address": "Port Mathurin Mauritius Africa" }, "geometry": { "type": "Point", "coordinates": [ 63.42203, -19.68072 ] } },
{ "type": "Feature", "properties": { "continent": "Africa", "country": "Mauritius", "place": "Tamarin", "address": "Tamarin Mauritius Africa" }, "geometry": { "type": "Point", "coordinates": [ 57.37056, -20.32556 ] } },
{ "type": "Feature", "properties": { "continent": "Africa", "country": "Morocco", "place": "Casablanca", "address": "Casablanca Morocco Africa" }, "geometry": { "type": "Point", "coordinates": [ -7.61889, 33.59661 ] } },
{ "type": "Feature", "properties": { "continent": "Africa", "country": "Morocco", "place": "Fes", "address": "Fes Morocco Africa" }, "geometry": { "type": "Point", "coordinates": [ 23.043610000000101, -27.99595 ] } },
{ "type": "Feature", "properties": { "continent": "Africa", "country": "Morocco", "place": "Rabat", "address": "Rabat Morocco Africa" }, "geometry": { "type": "Point", "coordinates": [ -6.84654, 33.99785 ] } },
{ "type": "Feature", "properties": { "continent": "Africa", "country": "Morocco", "place": "Meknès مكناس ⵎⴽⵏⴰⵙ", "address": "Meknès مكناس ⵎⴽⵏⴰⵙ Morocco Africa" }, "geometry": { "type": "Point", "coordinates": [ -5.54907, 33.900460000000102 ] } },
{ "type": "Feature", "properties": { "continent": "Africa", "country": "Morocco", "place": "Salé سلا", "address": "Salé سلا Morocco Africa" }, "geometry": { "type": "Point", "coordinates": [ -6.81725, 34.036740000000101 ] } },
{ "type": "Feature", "properties": { "continent": "Africa", "country": "Mozambique", "place": "Maputo", "address": "Maputo Mozambique Africa" }, "geometry": { "type": "Point", "coordinates": [ 32.58676, -25.96388 ] } },
{ "type": "Feature", "properties": { "continent": "Africa", "country": "Namibia", "place": "Windhoek", "address": "Windhoek Namibia Africa" }, "geometry": { "type": "Point", "coordinates": [ 17.09074, -22.57159 ] } },
{ "type": "Feature", "properties": { "continent": "Africa", "country": "Namibia", "place": "Walvis Bay", "address": "Walvis Bay Namibia Africa" }, "geometry": { "type": "Point", "coordinates": [ 14.5052400000001, -22.95737 ] } },
{ "type": "Feature", "properties": { "continent": "Africa", "country": "Namibia", "place": "Oshakati", "address": "Oshakati Namibia Africa" }, "geometry": { "type": "Point", "coordinates": [ 15.70408, -17.78608 ] } },
{ "type": "Feature", "properties": { "continent": "Africa", "country": "Namibia", "place": "Ondangwa", "address": "Ondangwa Namibia Africa" }, "geometry": { "type": "Point", "coordinates": [ 15.9734, -17.911719999999899 ] } },
{ "type": "Feature", "properties": { "continent": "Africa", "country": "Namibia", "place": "Swakopmund", "address": "Swakopmund Namibia Africa" }, "geometry": { "type": "Point", "coordinates": [ 14.52811, -22.6782 ] } },
{ "type": "Feature", "properties": { "continent": "Africa", "country": "Nigeria", "place": "Lagos", "address": "Lagos Nigeria Africa" }, "geometry": { "type": "Point", "coordinates": [ 3.36538, 6.64777 ] } },
{ "type": "Feature", "properties": { "continent": "Africa", "country": "Nigeria", "place": "Kano", "address": "Kano Nigeria Africa" }, "geometry": { "type": "Point", "coordinates": [ 31.00363, -29.66972 ] } },
{ "type": "Feature", "properties": { "continent": "Africa", "country": "Nigeria", "place": "Ibadan", "address": "Ibadan Nigeria Africa" }, "geometry": { "type": "Point", "coordinates": [ 3.89639, 7.38778 ] } },
{ "type": "Feature", "properties": { "continent": "Africa", "country": "Nigeria", "place": "Port Harcourt", "address": "Port Harcourt Nigeria Africa" }, "geometry": { "type": "Point", "coordinates": [ 7.04369, 4.81394 ] } },
{ "type": "Feature", "properties": { "continent": "Africa", "country": "Rwanda", "place": "Kinigi", "address": "Kinigi Rwanda Africa" }, "geometry": { "type": "Point", "coordinates": [ 29.30407, -1.72446 ] } },
{ "type": "Feature", "properties": { "continent": "Africa", "country": "Saint Helena, Ascension and Tristan da Cunha", "place": "Jamestown", "address": "Jamestown Saint Helena, Ascension and Tristan da Cunha Africa" }, "geometry": { "type": "Point", "coordinates": [ -5.71675, -15.93872 ] } },
{ "type": "Feature", "properties": { "continent": "Africa", "country": "São Tomé and Príncipe", "place": "São Tomé", "address": "São Tomé São Tomé and Príncipe Africa" }, "geometry": { "type": "Point", "coordinates": [ 6.73118, 0.33973 ] } },
{ "type": "Feature", "properties": { "continent": "Africa", "country": "São Tomé and Príncipe", "place": "Porto Alegre", "address": "Porto Alegre São Tomé and Príncipe Africa" }, "geometry": { "type": "Point", "coordinates": [ 6.53258, 0.03443 ] } },
{ "type": "Feature", "properties": { "continent": "Africa", "country": "Senegal", "place": "Dakar", "address": "Dakar Senegal Africa" }, "geometry": { "type": "Point", "coordinates": [ -17.44409, 14.72414 ] } },
{ "type": "Feature", "properties": { "continent": "Africa", "country": "Senegal", "place": "Thiès", "address": "Thiès Senegal Africa" }, "geometry": { "type": "Point", "coordinates": [ -17.08053, 14.4883100000001 ] } },
{ "type": "Feature", "properties": { "continent": "Africa", "country": "Senegal", "place": "Guédiawaye", "address": "Guédiawaye Senegal Africa" }, "geometry": { "type": "Point", "coordinates": [ -17.397993658, 14.7708417110001 ] } },
{ "type": "Feature", "properties": { "continent": "Africa", "country": "Seychelles", "place": "Victoria", "address": "Victoria Seychelles Africa" }, "geometry": { "type": "Point", "coordinates": [ 55.45229, -4.62277 ] } },
{ "type": "Feature", "properties": { "continent": "Africa", "country": "Seychelles", "place": "Beau Vallon", "address": "Beau Vallon Seychelles Africa" }, "geometry": { "type": "Point", "coordinates": [ 55.416670000000103, -4.6 ] } },
{ "type": "Feature", "properties": { "continent": "Africa", "country": "Seychelles", "place": "Grande Anse (Praslin)", "address": "Grande Anse (Praslin) Seychelles Africa" }, "geometry": { "type": "Point", "coordinates": [ 55.7166700000001, -4.31667 ] } },
{ "type": "Feature", "properties": { "continent": "Africa", "country": "Seychelles", "place": "Bel Ombre", "address": "Bel Ombre Seychelles Africa" }, "geometry": { "type": "Point", "coordinates": [ 55.416670000000103, -4.61667 ] } },
{ "type": "Feature", "properties": { "continent": "Africa", "country": "South Africa", "place": "Johannesburg", "address": "Johannesburg South Africa Africa" }, "geometry": { "type": "Point", "coordinates": [ 27.877010092081999, -26.2957549636698 ] } },
{ "type": "Feature", "properties": { "continent": "Africa", "country": "South Africa", "place": "Cape Town", "address": "Cape Town South Africa Africa" }, "geometry": { "type": "Point", "coordinates": [ 18.46878, -33.986089999999898 ] } },
{ "type": "Feature", "properties": { "continent": "Africa", "country": "South Africa", "place": "Durban", "address": "Durban South Africa Africa" }, "geometry": { "type": "Point", "coordinates": [ 30.85535, -29.81335 ] } },
{ "type": "Feature", "properties": { "continent": "Africa", "country": "South Africa", "place": "Soweto", "address": "Soweto South Africa Africa" }, "geometry": { "type": "Point", "coordinates": [ 27.919240000000102, -26.23139 ] } },
{ "type": "Feature", "properties": { "continent": "Africa", "country": "South Africa", "place": "Port Elizabeth", "address": "Port Elizabeth South Africa Africa" }, "geometry": { "type": "Point", "coordinates": [ 25.588991118957601, -33.989745399900798 ] } },
{ "type": "Feature", "properties": { "continent": "Africa", "country": "Sudan", "place": "Khartoum", "address": "Khartoum Sudan Africa" }, "geometry": { "type": "Point", "coordinates": [ 32.53241, 15.55177 ] } },
{ "type": "Feature", "properties": { "continent": "Africa", "country": "Swaziland", "place": "Lavumisa", "address": "Lavumisa Swaziland Africa" }, "geometry": { "type": "Point", "coordinates": [ 31.88822, -27.30927 ] } },
{ "type": "Feature", "properties": { "continent": "Africa", "country": "Swaziland", "place": "Nhlangano", "address": "Nhlangano Swaziland Africa" }, "geometry": { "type": "Point", "coordinates": [ 31.18814, -27.11026 ] } },
{ "type": "Feature", "properties": { "continent": "Africa", "country": "Tanzania", "place": "Dar es Salaam", "address": "Dar es Salaam Tanzania Africa" }, "geometry": { "type": "Point", "coordinates": [ 39.281923739975603, -6.81609539862017 ] } },
{ "type": "Feature", "properties": { "continent": "Africa", "country": "Tanzania", "place": "Zanzibar City", "address": "Zanzibar City Tanzania Africa" }, "geometry": { "type": "Point", "coordinates": [ 39.19793, -6.16394 ] } },
{ "type": "Feature", "properties": { "continent": "Africa", "country": "The Gambia", "place": "Sukuta", "address": "Sukuta The Gambia Africa" }, "geometry": { "type": "Point", "coordinates": [ -14.6, 13.5 ] } },
{ "type": "Feature", "properties": { "continent": "Africa", "country": "Tunisia", "place": "Tunis", "address": "Tunis Tunisia Africa" }, "geometry": { "type": "Point", "coordinates": [ 10.183150000000101, 36.799370000000103 ] } },
{ "type": "Feature", "properties": { "continent": "Africa", "country": "Tunisia", "place": "صفاقس", "address": "صفاقس Tunisia Africa" }, "geometry": { "type": "Point", "coordinates": [ 11.06222, 35.50472 ] } },
{ "type": "Feature", "properties": { "continent": "Africa", "country": "Tunisia", "place": "Sousse", "address": "Sousse Tunisia Africa" }, "geometry": { "type": "Point", "coordinates": [ 11.06222, 35.50472 ] } },
{ "type": "Feature", "properties": { "continent": "Africa", "country": "Tunisia", "place": "Kairouan", "address": "Kairouan Tunisia Africa" }, "geometry": { "type": "Point", "coordinates": [ 10.0952300000001, 35.6705 ] } },
{ "type": "Feature", "properties": { "continent": "Africa", "country": "Tunisia", "place": "Gabes", "address": "Gabes Tunisia Africa" }, "geometry": { "type": "Point", "coordinates": [ 11.06222, 35.50472 ] } },
{ "type": "Feature", "properties": { "continent": "Africa", "country": "Uganda", "place": "Kampala", "address": "Kampala Uganda Africa" }, "geometry": { "type": "Point", "coordinates": [ 32.537930000000102, 0.35128 ] } },
{ "type": "Feature", "properties": { "continent": "Africa", "country": "Uganda", "place": "Masaka", "address": "Masaka Uganda Africa" }, "geometry": { "type": "Point", "coordinates": [ 31.74184, -0.31706 ] } },
{ "type": "Feature", "properties": { "continent": "Africa", "country": "Uganda", "place": "Jinja", "address": "Jinja Uganda Africa" }, "geometry": { "type": "Point", "coordinates": [ 33.21013, 0.43118 ] } },
{ "type": "Feature", "properties": { "continent": "Africa", "country": "Uganda", "place": "Arua", "address": "Arua Uganda Africa" }, "geometry": { "type": "Point", "coordinates": [ 32.537930000000102, 0.35128 ] } },
{ "type": "Feature", "properties": { "continent": "Africa", "country": "Zambia", "place": "Lusaka", "address": "Lusaka Zambia Africa" }, "geometry": { "type": "Point", "coordinates": [ 28.2949, -15.36189 ] } },
{ "type": "Feature", "properties": { "continent": "Africa", "country": "Zambia", "place": "Kitwe", "address": "Kitwe Zambia Africa" }, "geometry": { "type": "Point", "coordinates": [ 30.970970000000101, -29.69296 ] } },
{ "type": "Feature", "properties": { "continent": "Africa", "country": "Zambia", "place": "Ndola", "address": "Ndola Zambia Africa" }, "geometry": { "type": "Point", "coordinates": [ 30.970970000000101, -29.69296 ] } },
{ "type": "Feature", "properties": { "continent": "Africa", "country": "Zambia", "place": "Chingola", "address": "Chingola Zambia Africa" }, "geometry": { "type": "Point", "coordinates": [ 27.859760000000101, -12.54918 ] } },
{ "type": "Feature", "properties": { "continent": "Africa", "country": "Zimbabwe", "place": "Harare", "address": "Harare Zimbabwe Africa" }, "geometry": { "type": "Point", "coordinates": [ 31.0645500000001, -17.82312 ] } },
{ "type": "Feature", "properties": { "continent": "Africa", "country": "Zimbabwe", "place": "Msampa Fishing Village", "address": "Msampa Fishing Village Zimbabwe Africa" }, "geometry": { "type": "Point", "coordinates": [ 30.97576, -29.69203 ] } },
{ "type": "Feature", "properties": { "continent": "Africa", "country": "Zimbabwe", "place": "Chitungwiza", "address": "Chitungwiza Zimbabwe Africa" }, "geometry": { "type": "Point", "coordinates": [ 31.056170000000101, -18.02291 ] } },
{ "type": "Feature", "properties": { "continent": "North America", "country": "Anguilla", "place": "Long Bay Village", "address": "Long Bay Village Anguilla North America" }, "geometry": { "type": "Point", "coordinates": [ -63.11667, 18.183330000000101 ] } },
{ "type": "Feature", "properties": { "continent": "North America", "country": "Anguilla", "place": "Blowing Point Village", "address": "Blowing Point Village Anguilla North America" }, "geometry": { "type": "Point", "coordinates": [ -63.083329999999897, 18.16667 ] } },
{ "type": "Feature", "properties": { "continent": "North America", "country": "Anguilla", "place": "South Hill", "address": "South Hill Anguilla North America" }, "geometry": { "type": "Point", "coordinates": [ -63.06729, 18.18668 ] } },
{ "type": "Feature", "properties": { "continent": "North America", "country": "Antigua and Barbuda", "place": "Urlings", "address": "Urlings Antigua and Barbuda North America" }, "geometry": { "type": "Point", "coordinates": [ -61.86667, 17.03333 ] } },
{ "type": "Feature", "properties": { "continent": "North America", "country": "Antigua and Barbuda", "place": "Crab Hill", "address": "Crab Hill Antigua and Barbuda North America" }, "geometry": { "type": "Point", "coordinates": [ -61.88333, 17.03333 ] } },
{ "type": "Feature", "properties": { "continent": "North America", "country": "Antigua and Barbuda", "place": "Ffryes", "address": "Ffryes Antigua and Barbuda North America" }, "geometry": { "type": "Point", "coordinates": [ -61.73333, 17.0500000000001 ] } },
{ "type": "Feature", "properties": { "continent": "North America", "country": "Barbados", "place": "Speightstown", "address": "Speightstown Barbados North America" }, "geometry": { "type": "Point", "coordinates": [ -59.65, 13.25 ] } },
{ "type": "Feature", "properties": { "continent": "North America", "country": "Barbados", "place": "Holetown", "address": "Holetown Barbados North America" }, "geometry": { "type": "Point", "coordinates": [ -59.63846, 13.183850000000101 ] } },
{ "type": "Feature", "properties": { "continent": "North America", "country": "Barbados", "place": "Bridgetown", "address": "Bridgetown Barbados North America" }, "geometry": { "type": "Point", "coordinates": [ -59.61269, 13.112 ] } },
{ "type": "Feature", "properties": { "continent": "North America", "country": "Barbados", "place": "Hastings", "address": "Hastings Barbados North America" }, "geometry": { "type": "Point", "coordinates": [ -59.60024, 13.0751900000001 ] } },
{ "type": "Feature", "properties": { "continent": "North America", "country": "Barbados", "place": "Rockley", "address": "Rockley Barbados North America" }, "geometry": { "type": "Point", "coordinates": [ -59.59093, 13.07494 ] } },
{ "type": "Feature", "properties": { "continent": "North America", "country": "Bermuda", "place": "Hamilton", "address": "Hamilton Bermuda North America" }, "geometry": { "type": "Point", "coordinates": [ -85.214528576394301, 34.993328856220998 ] } },
{ "type": "Feature", "properties": { "continent": "North America", "country": "Bermuda", "place": "Somerset", "address": "Somerset Bermuda North America" }, "geometry": { "type": "Point", "coordinates": [ -74.743527411441306, 40.549712725727701 ] } },
{ "type": "Feature", "properties": { "continent": "North America", "country": "Bermuda", "place": "Flatts", "address": "Flatts Bermuda North America" }, "geometry": { "type": "Point", "coordinates": [ -93.00051, 31.65941 ] } },
{ "type": "Feature", "properties": { "continent": "North America", "country": "British Virgin Islands", "place": "Road Town", "address": "Road Town British Virgin Islands North America" }, "geometry": { "type": "Point", "coordinates": [ -64.61324, 18.42878 ] } },
{ "type": "Feature", "properties": { "continent": "North America", "country": "British Virgin Islands", "place": "East End", "address": "East End British Virgin Islands North America" }, "geometry": { "type": "Point", "coordinates": [ -80.73314, 40.07841 ] } },
{ "type": "Feature", "properties": { "continent": "North America", "country": "British Virgin Islands", "place": "Little Mt.", "address": "Little Mt. British Virgin Islands North America" }, "geometry": { "type": "Point", "coordinates": [ -80.73314, 40.07841 ] } },
{ "type": "Feature", "properties": { "continent": "North America", "country": "British Virgin Islands", "place": "Spanish Town", "address": "Spanish Town British Virgin Islands North America" }, "geometry": { "type": "Point", "coordinates": [ -64.43333, 18.45 ] } },
{ "type": "Feature", "properties": { "continent": "North America", "country": "Canada", "place": "Toronto", "address": "Toronto Canada North America" }, "geometry": { "type": "Point", "coordinates": [ -79.28654, 43.74646 ] } },
{ "type": "Feature", "properties": { "continent": "North America", "country": "Canada", "place": "Montreal", "address": "Montreal Canada North America" }, "geometry": { "type": "Point", "coordinates": [ -73.56789, 45.51201 ] } },
{ "type": "Feature", "properties": { "continent": "North America", "country": "Canada", "place": "Calgary", "address": "Calgary Canada North America" }, "geometry": { "type": "Point", "coordinates": [ -113.929635246060997, 51.084126605579598 ] } },
{ "type": "Feature", "properties": { "continent": "North America", "country": "Canada", "place": "Ottawa", "address": "Ottawa Canada North America" }, "geometry": { "type": "Point", "coordinates": [ -75.57584, 45.2583 ] } },
{ "type": "Feature", "properties": { "continent": "North America", "country": "Canada", "place": "Edmonton", "address": "Edmonton Canada North America" }, "geometry": { "type": "Point", "coordinates": [ -113.59699, 53.559550000000101 ] } },
{ "type": "Feature", "properties": { "continent": "North America", "country": "Costa Rica", "place": "San José", "address": "San José Costa Rica North America" }, "geometry": { "type": "Point", "coordinates": [ -84.03807, 9.96581 ] } },
{ "type": "Feature", "properties": { "continent": "North America", "country": "Costa Rica", "place": "Alajuela", "address": "Alajuela Costa Rica North America" }, "geometry": { "type": "Point", "coordinates": [ -84.40019, 10.10832 ] } },
{ "type": "Feature", "properties": { "continent": "North America", "country": "Costa Rica", "place": "Heredia", "address": "Heredia Costa Rica North America" }, "geometry": { "type": "Point", "coordinates": [ -84.11717, 9.99969 ] } },
{ "type": "Feature", "properties": { "continent": "North America", "country": "Costa Rica", "place": "Puntarenas", "address": "Puntarenas Costa Rica North America" }, "geometry": { "type": "Point", "coordinates": [ -84.624994620326007, 9.619798017338139 ] } },
{ "type": "Feature", "properties": { "continent": "North America", "country": "Cuba", "place": "Havana", "address": "Havana Cuba North America" }, "geometry": { "type": "Point", "coordinates": [ -89.988877277188294, 40.369991506172902 ] } },
{ "type": "Feature", "properties": { "continent": "North America", "country": "Cuba", "place": "Santiago de Cuba", "address": "Santiago de Cuba Cuba North America" }, "geometry": { "type": "Point", "coordinates": [ -75.592219999999898, 19.9375 ] } },
{ "type": "Feature", "properties": { "continent": "North America", "country": "Cuba", "place": "Cienfuegos", "address": "Cienfuegos Cuba North America" }, "geometry": { "type": "Point", "coordinates": [ -82.3008, 27.945900000000101 ] } },
{ "type": "Feature", "properties": { "continent": "North America", "country": "Cuba", "place": "Camagüey", "address": "Camagüey Cuba North America" }, "geometry": { "type": "Point", "coordinates": [ -78.01667, 21.03333 ] } },
{ "type": "Feature", "properties": { "continent": "North America", "country": "Cuba", "place": "Guantánamo", "address": "Guantánamo Cuba North America" }, "geometry": { "type": "Point", "coordinates": [ -78.27323, 42.24147 ] } },
{ "type": "Feature", "properties": { "continent": "North America", "country": "El Salvador", "place": "Salinitas", "address": "Salinitas El Salvador North America" }, "geometry": { "type": "Point", "coordinates": [ -100.54688, 46.073230000000102 ] } },
{ "type": "Feature", "properties": { "continent": "North America", "country": "Greenland", "place": "Nuuk", "address": "Nuuk Greenland North America" }, "geometry": { "type": "Point", "coordinates": [ -70.8405, 43.036430000000102 ] } },
{ "type": "Feature", "properties": { "continent": "North America", "country": "Greenland", "place": "Ilulissat", "address": "Ilulissat Greenland North America" }, "geometry": { "type": "Point", "coordinates": [ -51.1, 69.21667 ] } },
{ "type": "Feature", "properties": { "continent": "North America", "country": "Guatemala", "place": "Guatemala City", "address": "Guatemala City Guatemala North America" }, "geometry": { "type": "Point", "coordinates": [ -90.4671, 14.63325 ] } },
{ "type": "Feature", "properties": { "continent": "North America", "country": "Guatemala", "place": "Mazatenango", "address": "Mazatenango Guatemala North America" }, "geometry": { "type": "Point", "coordinates": [ -91.51674, 14.5429300000001 ] } },
{ "type": "Feature", "properties": { "continent": "North America", "country": "Haiti", "place": "Port-au-Prince", "address": "Port-au-Prince Haiti North America" }, "geometry": { "type": "Point", "coordinates": [ -72.335, 18.539170000000102 ] } },
{ "type": "Feature", "properties": { "continent": "North America", "country": "Haiti", "place": "Delmas", "address": "Delmas Haiti North America" }, "geometry": { "type": "Point", "coordinates": [ -81.204035842038195, 33.616280833874001 ] } },
{ "type": "Feature", "properties": { "continent": "North America", "country": "Haiti", "place": "Pétionville", "address": "Pétionville Haiti North America" }, "geometry": { "type": "Point", "coordinates": [ -72.28528, 18.5125 ] } },
{ "type": "Feature", "properties": { "continent": "North America", "country": "Honduras", "place": "San Pedro Sula", "address": "San Pedro Sula Honduras North America" }, "geometry": { "type": "Point", "coordinates": [ -88.01573, 15.50395 ] } },
{ "type": "Feature", "properties": { "continent": "North America", "country": "Mexico", "place": "Mexico City", "address": "Mexico City Mexico North America" }, "geometry": { "type": "Point", "coordinates": [ -99.201549999999898, 19.403500000000101 ] } },
{ "type": "Feature", "properties": { "continent": "North America", "country": "Mexico", "place": "Tijuana", "address": "Tijuana Mexico North America" }, "geometry": { "type": "Point", "coordinates": [ -116.967663513217005, 32.525019909932098 ] } },
{ "type": "Feature", "properties": { "continent": "North America", "country": "Mexico", "place": "Guadalajara", "address": "Guadalajara Mexico North America" }, "geometry": { "type": "Point", "coordinates": [ -103.373416671534997, 20.6899627108921 ] } },
{ "type": "Feature", "properties": { "continent": "North America", "country": "Mexico", "place": "Puebla", "address": "Puebla Mexico North America" }, "geometry": { "type": "Point", "coordinates": [ -98.16477, 19.04497 ] } },
{ "type": "Feature", "properties": { "continent": "North America", "country": "Mexico", "place": "Ciudad Juárez", "address": "Ciudad Juárez Mexico North America" }, "geometry": { "type": "Point", "coordinates": [ -101.354234922377003, 20.7062550241622 ] } },
{ "type": "Feature", "properties": { "continent": "North America", "country": "Nicaragua", "place": "El Castillo", "address": "El Castillo Nicaragua North America" }, "geometry": { "type": "Point", "coordinates": [ -84.44008, 11.09784 ] } },
{ "type": "Feature", "properties": { "continent": "North America", "country": "Nicaragua", "place": "San Juan Del Sur", "address": "San Juan Del Sur Nicaragua North America" }, "geometry": { "type": "Point", "coordinates": [ -85.86969, 11.25397 ] } },
{ "type": "Feature", "properties": { "continent": "North America", "country": "Panama", "place": "Panama", "address": "Panama Panama North America" }, "geometry": { "type": "Point", "coordinates": [ -79.483452769640294, 42.080231007829603 ] } },
{ "type": "Feature", "properties": { "continent": "North America", "country": "Panama", "place": "Penonomé", "address": "Penonomé Panama North America" }, "geometry": { "type": "Point", "coordinates": [ -80.35455, 8.51403 ] } },
{ "type": "Feature", "properties": { "continent": "North America", "country": "Panama", "place": "San Carlos", "address": "San Carlos Panama North America" }, "geometry": { "type": "Point", "coordinates": [ -110.028576740426999, 33.7914661995855 ] } },
{ "type": "Feature", "properties": { "continent": "North America", "country": "Saint Kitts and Nevis", "place": "Basseterre", "address": "Basseterre Saint Kitts and Nevis North America" }, "geometry": { "type": "Point", "coordinates": [ -62.72263, 17.29697 ] } },
{ "type": "Feature", "properties": { "continent": "North America", "country": "Saint Kitts and Nevis", "place": "Charlestown", "address": "Charlestown Saint Kitts and Nevis North America" }, "geometry": { "type": "Point", "coordinates": [ -62.61667, 17.1333300000001 ] } },
{ "type": "Feature", "properties": { "continent": "North America", "country": "Saint Kitts and Nevis", "place": "Newcastle", "address": "Newcastle Saint Kitts and Nevis North America" }, "geometry": { "type": "Point", "coordinates": [ -62.58629, 17.20505 ] } },
{ "type": "Feature", "properties": { "continent": "North America", "country": "Saint Lucia", "place": "Castries", "address": "Castries Saint Lucia North America" }, "geometry": { "type": "Point", "coordinates": [ -60.98963, 14.0117700000001 ] } },
{ "type": "Feature", "properties": { "continent": "North America", "country": "Saint Lucia", "place": "Soufriere", "address": "Soufriere Saint Lucia North America" }, "geometry": { "type": "Point", "coordinates": [ -61.056599999999897, 13.85616 ] } },
{ "type": "Feature", "properties": { "continent": "North America", "country": "Saint Lucia", "place": "Laborie", "address": "Laborie Saint Lucia North America" }, "geometry": { "type": "Point", "coordinates": [ -60.98333, 13.75 ] } },
{ "type": "Feature", "properties": { "continent": "North America", "country": "Saint Lucia", "place": "Vieux Fort", "address": "Vieux Fort Saint Lucia North America" }, "geometry": { "type": "Point", "coordinates": [ -60.95, 13.71667 ] } },
{ "type": "Feature", "properties": { "continent": "North America", "country": "Saint Lucia", "place": "Fond St. Jaques", "address": "Fond St. Jaques Saint Lucia North America" }, "geometry": { "type": "Point", "coordinates": [ -80.33977, 27.4894800000001 ] } },
{ "type": "Feature", "properties": { "continent": "North America", "country": "Saint Vincent and the Grenadines", "place": "Ashton", "address": "Ashton Saint Vincent and the Grenadines North America" }, "geometry": { "type": "Point", "coordinates": [ -61.43333, 12.58333 ] } },
{ "type": "Feature", "properties": { "continent": "North America", "country": "Saint Vincent and the Grenadines", "place": "Clifton", "address": "Clifton Saint Vincent and the Grenadines North America" }, "geometry": { "type": "Point", "coordinates": [ -61.41667, 12.58333 ] } },
{ "type": "Feature", "properties": { "continent": "North America", "country": "Saint Vincent and the Grenadines", "place": "Big Sands", "address": "Big Sands Saint Vincent and the Grenadines North America" }, "geometry": { "type": "Point", "coordinates": [ -73.971629, 40.750071 ] } },
{ "type": "Feature", "properties": { "continent": "North America", "country": "Saint Vincent and the Grenadines", "place": "Derrick", "address": "Derrick Saint Vincent and the Grenadines North America" }, "geometry": { "type": "Point", "coordinates": [ -61.25, 12.98333 ] } },
{ "type": "Feature", "properties": { "continent": "North America", "country": "The Bahamas", "place": "Alice Town", "address": "Alice Town The Bahamas North America" }, "geometry": { "type": "Point", "coordinates": [ -76.43333, 25.33333 ] } },
{ "type": "Feature", "properties": { "continent": "North America", "country": "The Bahamas", "place": "Clarence Town", "address": "Clarence Town The Bahamas North America" }, "geometry": { "type": "Point", "coordinates": [ -74.98333, 23.1 ] } },
{ "type": "Feature", "properties": { "continent": "North America", "country": "Trinidad and Tobago", "place": "Scarborough", "address": "Scarborough Trinidad and Tobago North America" }, "geometry": { "type": "Point", "coordinates": [ -60.73669, 11.1850400000001 ] } },
{ "type": "Feature", "properties": { "continent": "North America", "country": "Turks and Caicos Islands", "place": "Providenciales", "address": "Providenciales Turks and Caicos Islands North America" }, "geometry": { "type": "Point", "coordinates": [ -72.28333, 21.78333 ] } },
{ "type": "Feature", "properties": { "continent": "North America", "country": "Turks and Caicos Islands", "place": "Wheeland", "address": "Wheeland Turks and Caicos Islands North America" }, "geometry": { "type": "Point", "coordinates": [ -80.73314, 40.07841 ] } },
{ "type": "Feature", "properties": { "continent": "North America", "country": "Turks and Caicos Islands", "place": "Leeward", "address": "Leeward Turks and Caicos Islands North America" }, "geometry": { "type": "Point", "coordinates": [ -80.73314, 40.07841 ] } },
{ "type": "Feature", "properties": { "continent": "North America", "country": "United States of America", "place": "Los Angeles", "address": "Los Angeles United States of America North America" }, "geometry": { "type": "Point", "coordinates": [ -118.622531771612998, 34.1430943438464 ] } },
{ "type": "Feature", "properties": { "continent": "North America", "country": "United States of America", "place": "New York", "address": "New York United States of America North America" }, "geometry": { "type": "Point", "coordinates": [ -78.738559638966294, 42.848934536705301 ] } },
{ "type": "Feature", "properties": { "continent": "North America", "country": "United States of America", "place": "Chicago", "address": "Chicago United States of America North America" }, "geometry": { "type": "Point", "coordinates": [ -87.780274678756101, 41.909190030726201 ] } },
{ "type": "Feature", "properties": { "continent": "North America", "country": "United States of America", "place": "Houston", "address": "Houston United States of America North America" }, "geometry": { "type": "Point", "coordinates": [ -95.312099348630198, 29.7605193038269 ] } },
{ "type": "Feature", "properties": { "continent": "North America", "country": "United States of America", "place": "Philadelphia", "address": "Philadelphia United States of America North America" }, "geometry": { "type": "Point", "coordinates": [ -75.123457983097893, 40.051062475622302 ] } },
{ "type": "Feature", "properties": { "continent": "South America", "country": "Argentina", "place": "Buenos Aires", "address": "Buenos Aires Argentina South America" }, "geometry": { "type": "Point", "coordinates": [ -60.400929065011198, -34.108849638505298 ] } },
{ "type": "Feature", "properties": { "continent": "South America", "country": "Argentina", "place": "Córdoba", "address": "Córdoba Argentina South America" }, "geometry": { "type": "Point", "coordinates": [ -64.080675047487006, -30.991721083841099 ] } },
{ "type": "Feature", "properties": { "continent": "South America", "country": "Argentina", "place": "Rosario", "address": "Rosario Argentina South America" }, "geometry": { "type": "Point", "coordinates": [ -60.656354916587603, -33.0108749507977 ] } },
{ "type": "Feature", "properties": { "continent": "South America", "country": "Argentina", "place": "San Juan", "address": "San Juan Argentina South America" }, "geometry": { "type": "Point", "coordinates": [ -68.567134706472004, -31.548587581131901 ] } },
{ "type": "Feature", "properties": { "continent": "South America", "country": "Argentina", "place": "San Miguel de Tucumán", "address": "San Miguel de Tucumán Argentina South America" }, "geometry": { "type": "Point", "coordinates": [ -65.244315830772095, -26.792939056400499 ] } },
{ "type": "Feature", "properties": { "continent": "South America", "country": "Bolivia", "place": "Cochabamba", "address": "Cochabamba Bolivia South America" }, "geometry": { "type": "Point", "coordinates": [ -66.183972867284396, -17.371142573103601 ] } },
{ "type": "Feature", "properties": { "continent": "South America", "country": "Bolivia", "place": "Santa Cruz de la Sierra", "address": "Santa Cruz de la Sierra Bolivia South America" }, "geometry": { "type": "Point", "coordinates": [ -63.1838, -17.76269 ] } },
{ "type": "Feature", "properties": { "continent": "South America", "country": "Bolivia", "place": "El Alto", "address": "El Alto Bolivia South America" }, "geometry": { "type": "Point", "coordinates": [ -68.177606388644307, -16.517691925838601 ] } },
{ "type": "Feature", "properties": { "continent": "South America", "country": "Bolivia", "place": "La Paz", "address": "La Paz Bolivia South America" }, "geometry": { "type": "Point", "coordinates": [ -68.15372, -16.52331 ] } },
{ "type": "Feature", "properties": { "continent": "South America", "country": "Bolivia", "place": "Sucre", "address": "Sucre Bolivia South America" }, "geometry": { "type": "Point", "coordinates": [ -65.264769999999899, -19.05189 ] } },
{ "type": "Feature", "properties": { "continent": "South America", "country": "Brazil", "place": "São Paulo", "address": "São Paulo Brazil South America" }, "geometry": { "type": "Point", "coordinates": [ -47.13702, -22.986429999999899 ] } },
{ "type": "Feature", "properties": { "continent": "South America", "country": "Brazil", "place": "Rio de Janeiro", "address": "Rio de Janeiro Brazil South America" }, "geometry": { "type": "Point", "coordinates": [ -43.46226, -23.01285 ] } },
{ "type": "Feature", "properties": { "continent": "South America", "country": "Brazil", "place": "Salvador", "address": "Salvador Brazil South America" }, "geometry": { "type": "Point", "coordinates": [ -38.513959999999898, -12.97121 ] } },
{ "type": "Feature", "properties": { "continent": "South America", "country": "Brazil", "place": "Brasília", "address": "Brasília Brazil South America" }, "geometry": { "type": "Point", "coordinates": [ -48.06302, -16.02937 ] } },
{ "type": "Feature", "properties": { "continent": "South America", "country": "Brazil", "place": "Fortaleza", "address": "Fortaleza Brazil South America" }, "geometry": { "type": "Point", "coordinates": [ -38.5492349083299, -3.75343996274911 ] } },
{ "type": "Feature", "properties": { "continent": "South America", "country": "Chile", "place": "Santiago", "address": "Santiago Chile South America" }, "geometry": { "type": "Point", "coordinates": [ -70.758936322289799, -33.470460323876402 ] } },
{ "type": "Feature", "properties": { "continent": "South America", "country": "Chile", "place": "Los Ángeles", "address": "Los Ángeles Chile South America" }, "geometry": { "type": "Point", "coordinates": [ -118.195839049105004, 34.075834740400502 ] } },
{ "type": "Feature", "properties": { "continent": "South America", "country": "Chile", "place": "Punta Arenas", "address": "Punta Arenas Chile South America" }, "geometry": { "type": "Point", "coordinates": [ -70.89613, -53.15844 ] } },
{ "type": "Feature", "properties": { "continent": "South America", "country": "Chile", "place": "Lota", "address": "Lota Chile South America" }, "geometry": { "type": "Point", "coordinates": [ -57.65625, -14.60485 ] } },
{ "type": "Feature", "properties": { "continent": "South America", "country": "Colombia", "place": "Bogota", "address": "Bogota Colombia South America" }, "geometry": { "type": "Point", "coordinates": [ -74.09567, 4.60784 ] } },
{ "type": "Feature", "properties": { "continent": "South America", "country": "Colombia", "place": "Cali", "address": "Cali Colombia South America" }, "geometry": { "type": "Point", "coordinates": [ -118.032641206885003, 33.8542096860265 ] } },
{ "type": "Feature", "properties": { "continent": "South America", "country": "Colombia", "place": "Medellín", "address": "Medellín Colombia South America" }, "geometry": { "type": "Point", "coordinates": [ -75.60375, 6.2519 ] } },
{ "type": "Feature", "properties": { "continent": "South America", "country": "Colombia", "place": "Barranquilla", "address": "Barranquilla Colombia South America" }, "geometry": { "type": "Point", "coordinates": [ -74.82831, 11.01514 ] } },
{ "type": "Feature", "properties": { "continent": "South America", "country": "Colombia", "place": "Cartagena", "address": "Cartagena Colombia South America" }, "geometry": { "type": "Point", "coordinates": [ -75.51731, 10.44823 ] } },
{ "type": "Feature", "properties": { "continent": "South America", "country": "Ecuador", "place": "Guayaquil", "address": "Guayaquil Ecuador South America" }, "geometry": { "type": "Point", "coordinates": [ -79.891035733020004, -2.16319820425571 ] } },
{ "type": "Feature", "properties": { "continent": "South America", "country": "Ecuador", "place": "Quito", "address": "Quito Ecuador South America" }, "geometry": { "type": "Point", "coordinates": [ -78.490579173087397, -0.171200533617831 ] } },
{ "type": "Feature", "properties": { "continent": "South America", "country": "Ecuador", "place": "Cuenca", "address": "Cuenca Ecuador South America" }, "geometry": { "type": "Point", "coordinates": [ -79.029789716400302, -2.90216025058876 ] } },
{ "type": "Feature", "properties": { "continent": "South America", "country": "Ecuador", "place": "Quevedo", "address": "Quevedo Ecuador South America" }, "geometry": { "type": "Point", "coordinates": [ -79.46699, -1.01334 ] } },
{ "type": "Feature", "properties": { "continent": "South America", "country": "Paraguay", "place": "Asuncion", "address": "Asuncion Paraguay South America" }, "geometry": { "type": "Point", "coordinates": [ -57.597115688322198, -25.2894147040947 ] } },
{ "type": "Feature", "properties": { "continent": "South America", "country": "Paraguay", "place": "San Lorenzo", "address": "San Lorenzo Paraguay South America" }, "geometry": { "type": "Point", "coordinates": [ -54.618114933659399, -25.5382199704359 ] } },
{ "type": "Feature", "properties": { "continent": "South America", "country": "Paraguay", "place": "Ciudad del Este", "address": "Ciudad del Este Paraguay South America" }, "geometry": { "type": "Point", "coordinates": [ -54.618114933659399, -25.5382199704359 ] } },
{ "type": "Feature", "properties": { "continent": "South America", "country": "Paraguay", "place": "Fernando de la Mora", "address": "Fernando de la Mora Paraguay South America" }, "geometry": { "type": "Point", "coordinates": [ -57.5506, -25.32844 ] } },
{ "type": "Feature", "properties": { "continent": "South America", "country": "Paraguay", "place": "Lambaré", "address": "Lambaré Paraguay South America" }, "geometry": { "type": "Point", "coordinates": [ -57.630378941957403, -25.339261122734602 ] } },
{ "type": "Feature", "properties": { "continent": "South America", "country": "Peru", "place": "Lima", "address": "Lima Peru South America" }, "geometry": { "type": "Point", "coordinates": [ -77.0355, -12.11034 ] } },
{ "type": "Feature", "properties": { "continent": "South America", "country": "Peru", "place": "Arequipa", "address": "Arequipa Peru South America" }, "geometry": { "type": "Point", "coordinates": [ -71.48149, -16.41613 ] } },
{ "type": "Feature", "properties": { "continent": "South America", "country": "Peru", "place": "Trujillo", "address": "Trujillo Peru South America" }, "geometry": { "type": "Point", "coordinates": [ -79.011598938623294, -8.10187189753014 ] } },
{ "type": "Feature", "properties": { "continent": "South America", "country": "Peru", "place": "Chiclayo", "address": "Chiclayo Peru South America" }, "geometry": { "type": "Point", "coordinates": [ -79.84211, -6.76978 ] } },
{ "type": "Feature", "properties": { "continent": "South America", "country": "Peru", "place": "Piura", "address": "Piura Peru South America" }, "geometry": { "type": "Point", "coordinates": [ -86.06038, 40.74737 ] } },
{ "type": "Feature", "properties": { "continent": "South America", "country": "Uruguay", "place": "Montevideo", "address": "Montevideo Uruguay South America" }, "geometry": { "type": "Point", "coordinates": [ -56.222628057713798, -34.819149037275302 ] } },
{ "type": "Feature", "properties": { "continent": "South America", "country": "Uruguay", "place": "Salto", "address": "Salto Uruguay South America" }, "geometry": { "type": "Point", "coordinates": [ -98.165514915327293, 19.042180028763699 ] } },
{ "type": "Feature", "properties": { "continent": "South America", "country": "Uruguay", "place": "Paysandú", "address": "Paysandú Uruguay South America" }, "geometry": { "type": "Point", "coordinates": [ -58.098164917015602, -32.264814950649097 ] } },
{ "type": "Feature", "properties": { "continent": "Asia", "country": "Armenia", "place": "Yerevan", "address": "Yerevan Armenia Asia" }, "geometry": { "type": "Point", "coordinates": [ 44.513, 40.178710000000102 ] } },
{ "type": "Feature", "properties": { "continent": "Asia", "country": "Armenia", "place": "Gyumri", "address": "Gyumri Armenia Asia" }, "geometry": { "type": "Point", "coordinates": [ 43.846420000000101, 40.79346 ] } },
{ "type": "Feature", "properties": { "continent": "Asia", "country": "Armenia", "place": "Vanadzor", "address": "Vanadzor Armenia Asia" }, "geometry": { "type": "Point", "coordinates": [ 44.49572, 40.811770000000102 ] } },
{ "type": "Feature", "properties": { "continent": "Asia", "country": "Armenia", "place": "Vagharshapat", "address": "Vagharshapat Armenia Asia" }, "geometry": { "type": "Point", "coordinates": [ 44.2894900000001, 40.17106 ] } },
{ "type": "Feature", "properties": { "continent": "Asia", "country": "Azerbaijan", "place": "Baku", "address": "Baku Azerbaijan Asia" }, "geometry": { "type": "Point", "coordinates": [ 49.87222, 40.4106600000001 ] } },
{ "type": "Feature", "properties": { "continent": "Asia", "country": "Azerbaijan", "place": "Sumgayit", "address": "Sumgayit Azerbaijan Asia" }, "geometry": { "type": "Point", "coordinates": [ 49.607080000000103, 40.61366 ] } },
{ "type": "Feature", "properties": { "continent": "Asia", "country": "Azerbaijan", "place": "Binagadi", "address": "Binagadi Azerbaijan Asia" }, "geometry": { "type": "Point", "coordinates": [ 49.8280600000001, 40.466230000000103 ] } },
{ "type": "Feature", "properties": { "continent": "Asia", "country": "Bahrain", "place": "الزلاق‎", "address": "الزلاق‎ Bahrain Asia" }, "geometry": { "type": "Point", "coordinates": [ 50.4876517430001, 26.062470926000099 ] } },
{ "type": "Feature", "properties": { "continent": "Asia", "country": "Bangladesh", "place": "Sylhet", "address": "Sylhet Bangladesh Asia" }, "geometry": { "type": "Point", "coordinates": [ 91.68678, 24.9293200000001 ] } },
{ "type": "Feature", "properties": { "continent": "Asia", "country": "Bangladesh", "place": "Dhaka", "address": "Dhaka Bangladesh Asia" }, "geometry": { "type": "Point", "coordinates": [ 90.36877, 23.80675 ] } },
{ "type": "Feature", "properties": { "continent": "Asia", "country": "Bangladesh", "place": "Comilla", "address": "Comilla Bangladesh Asia" }, "geometry": { "type": "Point", "coordinates": [ 91.1883, 23.46427 ] } },
{ "type": "Feature", "properties": { "continent": "Asia", "country": "Bangladesh", "place": "Rangpur", "address": "Rangpur Bangladesh Asia" }, "geometry": { "type": "Point", "coordinates": [ 89.25161, 25.745360000000101 ] } },
{ "type": "Feature", "properties": { "continent": "Asia", "country": "Bhutan", "place": "Thimphu", "address": "Thimphu Bhutan Asia" }, "geometry": { "type": "Point", "coordinates": [ 89.64191, 27.466090000000101 ] } },
{ "type": "Feature", "properties": { "continent": "Asia", "country": "Bhutan", "place": "Phobji", "address": "Phobji Bhutan Asia" }, "geometry": { "type": "Point", "coordinates": [ 122.52192, 9.54446 ] } },
{ "type": "Feature", "properties": { "continent": "Asia", "country": "Brunei", "place": "Kuala Belait", "address": "Kuala Belait Brunei Asia" }, "geometry": { "type": "Point", "coordinates": [ 114.20228, 4.58804 ] } },
{ "type": "Feature", "properties": { "continent": "Asia", "country": "China", "place": "Shanghai", "address": "Shanghai China Asia" }, "geometry": { "type": "Point", "coordinates": [ 121.45806, 31.22222 ] } },
{ "type": "Feature", "properties": { "continent": "Asia", "country": "China", "place": "Beijing", "address": "Beijing China Asia" }, "geometry": { "type": "Point", "coordinates": [ 116.39723, 39.9075 ] } },
{ "type": "Feature", "properties": { "continent": "Asia", "country": "China", "place": "Tianjin", "address": "Tianjin China Asia" }, "geometry": { "type": "Point", "coordinates": [ 117.17667, 39.142220000000101 ] } },
{ "type": "Feature", "properties": { "continent": "Asia", "country": "China", "place": "Guangzhou", "address": "Guangzhou China Asia" }, "geometry": { "type": "Point", "coordinates": [ 113.25, 23.11667 ] } },
{ "type": "Feature", "properties": { "continent": "Asia", "country": "China", "place": "Shenzhen", "address": "Shenzhen China Asia" }, "geometry": { "type": "Point", "coordinates": [ 114.0683, 22.54554 ] } },
{ "type": "Feature", "properties": { "continent": "Asia", "country": "Cyprus", "place": "Nicosia", "address": "Nicosia Cyprus Asia" }, "geometry": { "type": "Point", "coordinates": [ 33.316037195462101, 35.097517173363002 ] } },
{ "type": "Feature", "properties": { "continent": "Asia", "country": "Cyprus", "place": "Limassol", "address": "Limassol Cyprus Asia" }, "geometry": { "type": "Point", "coordinates": [ 33.014653070225897, 34.665042712465599 ] } },
{ "type": "Feature", "properties": { "continent": "Asia", "country": "Cyprus", "place": "Larnaca", "address": "Larnaca Cyprus Asia" }, "geometry": { "type": "Point", "coordinates": [ 33.63693, 34.91052 ] } },
{ "type": "Feature", "properties": { "continent": "Asia", "country": "Cyprus", "place": "Famagusta", "address": "Famagusta Cyprus Asia" }, "geometry": { "type": "Point", "coordinates": [ 33.60833, 35.15833 ] } },
{ "type": "Feature", "properties": { "continent": "Asia", "country": "Cyprus", "place": "Paphos", "address": "Paphos Cyprus Asia" }, "geometry": { "type": "Point", "coordinates": [ 32.416670000000103, 34.76667 ] } },
{ "type": "Feature", "properties": { "continent": "Asia", "country": "Georgia", "place": "Tbilisi", "address": "Tbilisi Georgia Asia" }, "geometry": { "type": "Point", "coordinates": [ 44.75356, 41.7107600000001 ] } },
{ "type": "Feature", "properties": { "continent": "Asia", "country": "Georgia", "place": "Kutaisi", "address": "Kutaisi Georgia Asia" }, "geometry": { "type": "Point", "coordinates": [ 42.669420000000102, 42.25772 ] } },
{ "type": "Feature", "properties": { "continent": "Asia", "country": "Georgia", "place": "Batumi", "address": "Batumi Georgia Asia" }, "geometry": { "type": "Point", "coordinates": [ 41.645580000000102, 41.64528 ] } },
{ "type": "Feature", "properties": { "continent": "Asia", "country": "Georgia", "place": "Zugdidi", "address": "Zugdidi Georgia Asia" }, "geometry": { "type": "Point", "coordinates": [ 41.865760000000101, 42.50931 ] } },
{ "type": "Feature", "properties": { "continent": "Asia", "country": "India", "place": "Mumbai", "address": "Mumbai India Asia" }, "geometry": { "type": "Point", "coordinates": [ 72.86909, 19.13132 ] } },
{ "type": "Feature", "properties": { "continent": "Asia", "country": "India", "place": "Delhi", "address": "Delhi India Asia" }, "geometry": { "type": "Point", "coordinates": [ 77.13964, 28.698620000000101 ] } },
{ "type": "Feature", "properties": { "continent": "Asia", "country": "India", "place": "New Delhi", "address": "New Delhi India Asia" }, "geometry": { "type": "Point", "coordinates": [ 77.13964, 28.698620000000101 ] } },
{ "type": "Feature", "properties": { "continent": "Asia", "country": "India", "place": "ಬೆಂಗಳೂರು", "address": "ಬೆಂಗಳೂರು India Asia" }, "geometry": { "type": "Point", "coordinates": [ 77.584940000000103, 13.023710000000101 ] } },
{ "type": "Feature", "properties": { "continent": "Asia", "country": "India", "place": "Bengaluru", "address": "Bengaluru India Asia" }, "geometry": { "type": "Point", "coordinates": [ 77.584940000000103, 13.023710000000101 ] } },
{ "type": "Feature", "properties": { "continent": "Asia", "country": "Indonesia", "place": "Jakarta", "address": "Jakarta Indonesia Asia" }, "geometry": { "type": "Point", "coordinates": [ 106.82519, -6.13599 ] } },
{ "type": "Feature", "properties": { "continent": "Asia", "country": "Indonesia", "place": "Medan", "address": "Medan Indonesia Asia" }, "geometry": { "type": "Point", "coordinates": [ 98.69752, 3.58633 ] } },
{ "type": "Feature", "properties": { "continent": "Asia", "country": "Israel", "place": "Jerusalem", "address": "Jerusalem Israel Asia" }, "geometry": { "type": "Point", "coordinates": [ 35.215956031550398, 31.761427766455501 ] } },
{ "type": "Feature", "properties": { "continent": "Asia", "country": "Israel", "place": "Tel Aviv-Yafo", "address": "Tel Aviv-Yafo Israel Asia" }, "geometry": { "type": "Point", "coordinates": [ 34.75602, 32.053040000000102 ] } },
{ "type": "Feature", "properties": { "continent": "Asia", "country": "Israel", "place": "Haifa", "address": "Haifa Israel Asia" }, "geometry": { "type": "Point", "coordinates": [ 35.00326, 32.80123 ] } },
{ "type": "Feature", "properties": { "continent": "Asia", "country": "Israel", "place": "Petah Tikva", "address": "Petah Tikva Israel Asia" }, "geometry": { "type": "Point", "coordinates": [ 34.88576, 32.094630000000102 ] } },
{ "type": "Feature", "properties": { "continent": "Asia", "country": "Japan", "place": "Tokyo", "address": "Tokyo Japan Asia" }, "geometry": { "type": "Point", "coordinates": [ 139.69171609, 35.68945633 ] } },
{ "type": "Feature", "properties": { "continent": "Asia", "country": "Japan", "place": "Yokohama", "address": "Yokohama Japan Asia" }, "geometry": { "type": "Point", "coordinates": [ 139.638063710000011, 35.44412629 ] } },
{ "type": "Feature", "properties": { "continent": "Asia", "country": "Japan", "place": "Osaka", "address": "Osaka Japan Asia" }, "geometry": { "type": "Point", "coordinates": [ 135.502161949999987, 34.693725910000097 ] } },
{ "type": "Feature", "properties": { "continent": "Asia", "country": "Japan", "place": "Nagoya", "address": "Nagoya Japan Asia" }, "geometry": { "type": "Point", "coordinates": [ 136.90668338, 35.18142047 ] } },
{ "type": "Feature", "properties": { "continent": "Asia", "country": "Japan", "place": "Sapporo", "address": "Sapporo Japan Asia" }, "geometry": { "type": "Point", "coordinates": [ 141.35436879, 43.062037240000102 ] } },
{ "type": "Feature", "properties": { "continent": "Asia", "country": "Jordan", "place": "Amman", "address": "Amman Jordan Asia" }, "geometry": { "type": "Point", "coordinates": [ 35.8807100000001, 31.96189 ] } },
{ "type": "Feature", "properties": { "continent": "Asia", "country": "Jordan", "place": "Irbid", "address": "Irbid Jordan Asia" }, "geometry": { "type": "Point", "coordinates": [ 35.85368, 32.54945 ] } },
{ "type": "Feature", "properties": { "continent": "Asia", "country": "Jordan", "place": "Aqaba", "address": "Aqaba Jordan Asia" }, "geometry": { "type": "Point", "coordinates": [ 35.00692, 29.53202 ] } },
{ "type": "Feature", "properties": { "continent": "Asia", "country": "Jordan", "place": "Madaba", "address": "Madaba Jordan Asia" }, "geometry": { "type": "Point", "coordinates": [ 35.8, 31.7166700000001 ] } },
{ "type": "Feature", "properties": { "continent": "Asia", "country": "Kazakhstan", "place": "Almaty", "address": "Almaty Kazakhstan Asia" }, "geometry": { "type": "Point", "coordinates": [ 76.940330000000102, 43.25021 ] } },
{ "type": "Feature", "properties": { "continent": "Asia", "country": "Kazakhstan", "place": "Astana", "address": "Astana Kazakhstan Asia" }, "geometry": { "type": "Point", "coordinates": [ 71.45926, 51.19752 ] } },
{ "type": "Feature", "properties": { "continent": "Asia", "country": "Kazakhstan", "place": "Shymkent", "address": "Shymkent Kazakhstan Asia" }, "geometry": { "type": "Point", "coordinates": [ 69.601250000000107, 42.31129 ] } },
{ "type": "Feature", "properties": { "continent": "Asia", "country": "Kazakhstan", "place": "Karaganda", "address": "Karaganda Kazakhstan Asia" }, "geometry": { "type": "Point", "coordinates": [ 73.08479, 49.802610000000101 ] } },
{ "type": "Feature", "properties": { "continent": "Asia", "country": "Kazakhstan", "place": "Aktobe", "address": "Aktobe Kazakhstan Asia" }, "geometry": { "type": "Point", "coordinates": [ 57.14525, 50.28503 ] } },
{ "type": "Feature", "properties": { "continent": "Asia", "country": "Kuwait", "place": "Rumaithiya", "address": "Rumaithiya Kuwait Asia" }, "geometry": { "type": "Point", "coordinates": [ 48.07417, 29.31167 ] } },
{ "type": "Feature", "properties": { "continent": "Asia", "country": "Kuwait", "place": "Al Khiran", "address": "Al Khiran Kuwait Asia" }, "geometry": { "type": "Point", "coordinates": [ 48.39028, 28.65111 ] } },
{ "type": "Feature", "properties": { "continent": "Asia", "country": "Laos", "place": "Vientiane", "address": "Vientiane Laos Asia" }, "geometry": { "type": "Point", "coordinates": [ 102.6, 17.96667 ] } },
{ "type": "Feature", "properties": { "continent": "Asia", "country": "Lebanon", "place": "Beirut", "address": "Beirut Lebanon Asia" }, "geometry": { "type": "Point", "coordinates": [ 35.50827, 33.8947900000001 ] } },
{ "type": "Feature", "properties": { "continent": "Asia", "country": "Lebanon", "place": "Tyre", "address": "Tyre Lebanon Asia" }, "geometry": { "type": "Point", "coordinates": [ 35.20016, 33.27057 ] } },
{ "type": "Feature", "properties": { "continent": "Asia", "country": "Malaysia", "place": "Kuala Lumpur", "address": "Kuala Lumpur Malaysia Asia" }, "geometry": { "type": "Point", "coordinates": [ 101.69405, 3.14789 ] } },
{ "type": "Feature", "properties": { "continent": "Asia", "country": "Malaysia", "place": "Petaling Jaya", "address": "Petaling Jaya Malaysia Asia" }, "geometry": { "type": "Point", "coordinates": [ 101.62158, 3.13444 ] } },
{ "type": "Feature", "properties": { "continent": "Asia", "country": "Malaysia", "place": "Kota Kinabalu", "address": "Kota Kinabalu Malaysia Asia" }, "geometry": { "type": "Point", "coordinates": [ 116.07423, 5.98139 ] } },
{ "type": "Feature", "properties": { "continent": "Asia", "country": "Malaysia", "place": "Sandakan", "address": "Sandakan Malaysia Asia" }, "geometry": { "type": "Point", "coordinates": [ 118.11572, 5.84004 ] } },
{ "type": "Feature", "properties": { "continent": "Asia", "country": "Malaysia", "place": "Malacca City", "address": "Malacca City Malaysia Asia" }, "geometry": { "type": "Point", "coordinates": [ 102.2405, 2.196 ] } },
{ "type": "Feature", "properties": { "continent": "Asia", "country": "Maldives", "place": "Malé", "address": "Malé Maldives Asia" }, "geometry": { "type": "Point", "coordinates": [ 73.50928, 4.17524 ] } },
{ "type": "Feature", "properties": { "continent": "Asia", "country": "Mongolia", "place": "Ulaanbaatar", "address": "Ulaanbaatar Mongolia Asia" }, "geometry": { "type": "Point", "coordinates": [ 106.9181, 47.92218 ] } },
{ "type": "Feature", "properties": { "continent": "Asia", "country": "Myanmar", "place": "Yangon", "address": "Yangon Myanmar Asia" }, "geometry": { "type": "Point", "coordinates": [ 96.15611, 16.80528 ] } },
{ "type": "Feature", "properties": { "continent": "Asia", "country": "Myanmar", "place": "Mandalay", "address": "Mandalay Myanmar Asia" }, "geometry": { "type": "Point", "coordinates": [ 96.238031843236698, 21.875560520862599 ] } },
{ "type": "Feature", "properties": { "continent": "Asia", "country": "Myanmar", "place": "Mawlamyine", "address": "Mawlamyine Myanmar Asia" }, "geometry": { "type": "Point", "coordinates": [ 97.643177902754601, 16.433668880634201 ] } },
{ "type": "Feature", "properties": { "continent": "Asia", "country": "Myanmar", "place": "Sagaing", "address": "Sagaing Myanmar Asia" }, "geometry": { "type": "Point", "coordinates": [ 95.845527950199198, 21.9953437646599 ] } },
{ "type": "Feature", "properties": { "continent": "Asia", "country": "Nepal", "place": "Kathmandu", "address": "Kathmandu Nepal Asia" }, "geometry": { "type": "Point", "coordinates": [ 85.322270000000103, 27.69329 ] } },
{ "type": "Feature", "properties": { "continent": "Asia", "country": "Nepal", "place": "Pokhara", "address": "Pokhara Nepal Asia" }, "geometry": { "type": "Point", "coordinates": [ 83.96851, 28.26689 ] } },
{ "type": "Feature", "properties": { "continent": "Asia", "country": "Nepal", "place": "Biratnagar", "address": "Biratnagar Nepal Asia" }, "geometry": { "type": "Point", "coordinates": [ 87.28337, 26.4831 ] } },
{ "type": "Feature", "properties": { "continent": "Asia", "country": "Nepal", "place": "Patan", "address": "Patan Nepal Asia" }, "geometry": { "type": "Point", "coordinates": [ 85.31417, 27.676580000000101 ] } },
{ "type": "Feature", "properties": { "continent": "Asia", "country": "Nepal", "place": "Bhimdatta", "address": "Bhimdatta Nepal Asia" }, "geometry": { "type": "Point", "coordinates": [ 80.176100000000105, 28.97363 ] } },
{ "type": "Feature", "properties": { "continent": "Asia", "country": "North Korea", "place": "Sinŭiju", "address": "Sinŭiju North Korea Asia" }, "geometry": { "type": "Point", "coordinates": [ 124.39806, 40.10056 ] } },
{ "type": "Feature", "properties": { "continent": "Asia", "country": "Oman", "place": "Muscat", "address": "Muscat Oman Asia" }, "geometry": { "type": "Point", "coordinates": [ 58.59126, 23.6152300000001 ] } },
{ "type": "Feature", "properties": { "continent": "Asia", "country": "Oman", "place": "Seeb", "address": "Seeb Oman Asia" }, "geometry": { "type": "Point", "coordinates": [ 58.251280000000101, 23.59605 ] } },
{ "type": "Feature", "properties": { "continent": "Asia", "country": "Oman", "place": "Salalah", "address": "Salalah Oman Asia" }, "geometry": { "type": "Point", "coordinates": [ 54.09301, 17.0149200000001 ] } },
{ "type": "Feature", "properties": { "continent": "Asia", "country": "Pakistan", "place": "Karachi", "address": "Karachi Pakistan Asia" }, "geometry": { "type": "Point", "coordinates": [ 67.0822000000001, 24.9056 ] } },
{ "type": "Feature", "properties": { "continent": "Asia", "country": "Pakistan", "place": "Lahore", "address": "Lahore Pakistan Asia" }, "geometry": { "type": "Point", "coordinates": [ 74.34361, 31.54972 ] } },
{ "type": "Feature", "properties": { "continent": "Asia", "country": "Pakistan", "place": "Faisalabad", "address": "Faisalabad Pakistan Asia" }, "geometry": { "type": "Point", "coordinates": [ 73.08333, 31.41667 ] } },
{ "type": "Feature", "properties": { "continent": "Asia", "country": "Pakistan", "place": "Peshawar", "address": "Peshawar Pakistan Asia" }, "geometry": { "type": "Point", "coordinates": [ 71.57849, 34.008 ] } },
{ "type": "Feature", "properties": { "continent": "Asia", "country": "Pakistan", "place": "Rawalpindi", "address": "Rawalpindi Pakistan Asia" }, "geometry": { "type": "Point", "coordinates": [ 73.0679, 33.600700000000103 ] } },
{ "type": "Feature", "properties": { "continent": "Asia", "country": "Philippines", "place": "Manila", "address": "Manila Philippines Asia" }, "geometry": { "type": "Point", "coordinates": [ 120.98627, 14.60487 ] } },
{ "type": "Feature", "properties": { "continent": "Asia", "country": "Philippines", "place": "Cebu City", "address": "Cebu City Philippines Asia" }, "geometry": { "type": "Point", "coordinates": [ 122.46811, 9.60187 ] } },
{ "type": "Feature", "properties": { "continent": "Asia", "country": "Republic of China (Taiwan)", "place": "Taipei City", "address": "Taipei City Republic of China (Taiwan) Asia" }, "geometry": { "type": "Point", "coordinates": [ 121.49958, 25.036920000000102 ] } },
{ "type": "Feature", "properties": { "continent": "Asia", "country": "Republic of China (Taiwan)", "place": "Tainan City", "address": "Tainan City Republic of China (Taiwan) Asia" }, "geometry": { "type": "Point", "coordinates": [ 120.18476, 22.991240000000101 ] } },
{ "type": "Feature", "properties": { "continent": "Asia", "country": "Republic of China (Taiwan)", "place": "Taoyuan District", "address": "Taoyuan District Republic of China (Taiwan) Asia" }, "geometry": { "type": "Point", "coordinates": [ 121.30236, 24.99368 ] } },
{ "type": "Feature", "properties": { "continent": "Asia", "country": "Republic of China (Taiwan)", "place": "Zhongli District", "address": "Zhongli District Republic of China (Taiwan) Asia" }, "geometry": { "type": "Point", "coordinates": [ 121.22488, 24.96586 ] } },
{ "type": "Feature", "properties": { "continent": "Asia", "country": "Russian Federation", "place": "Moscow", "address": "Moscow Russian Federation Asia" }, "geometry": { "type": "Point", "coordinates": [ 37.6014300000001, 55.77997 ] } },
{ "type": "Feature", "properties": { "continent": "Asia", "country": "Russian Federation", "place": "Saint Petersburg", "address": "Saint Petersburg Russian Federation Asia" }, "geometry": { "type": "Point", "coordinates": [ 30.29652, 60.007510000000103 ] } },
{ "type": "Feature", "properties": { "continent": "Asia", "country": "Russian Federation", "place": "Novosibirsk", "address": "Novosibirsk Russian Federation Asia" }, "geometry": { "type": "Point", "coordinates": [ 82.910160000000104, 55.039760000000101 ] } },
{ "type": "Feature", "properties": { "continent": "Asia", "country": "Russian Federation", "place": "Yekaterinburg", "address": "Yekaterinburg Russian Federation Asia" }, "geometry": { "type": "Point", "coordinates": [ 60.59891, 56.8376400000001 ] } },
{ "type": "Feature", "properties": { "continent": "Asia", "country": "Russian Federation", "place": "Nizhny Novgorod", "address": "Nizhny Novgorod Russian Federation Asia" }, "geometry": { "type": "Point", "coordinates": [ 43.97824, 56.25653 ] } },
{ "type": "Feature", "properties": { "continent": "Asia", "country": "Saudi Arabia", "place": "Riyadh", "address": "Riyadh Saudi Arabia Asia" }, "geometry": { "type": "Point", "coordinates": [ 46.717660000000102, 24.6424400000001 ] } },
{ "type": "Feature", "properties": { "continent": "Asia", "country": "Saudi Arabia", "place": "Jeddah", "address": "Jeddah Saudi Arabia Asia" }, "geometry": { "type": "Point", "coordinates": [ 39.16139, 21.58044 ] } },
{ "type": "Feature", "properties": { "continent": "Asia", "country": "Saudi Arabia", "place": "Mecca", "address": "Mecca Saudi Arabia Asia" }, "geometry": { "type": "Point", "coordinates": [ 39.78984, 21.41068 ] } },
{ "type": "Feature", "properties": { "continent": "Asia", "country": "Saudi Arabia", "place": "Medina", "address": "Medina Saudi Arabia Asia" }, "geometry": { "type": "Point", "coordinates": [ 39.60641, 24.46728 ] } },
{ "type": "Feature", "properties": { "continent": "Asia", "country": "Saudi Arabia", "place": "Hofuf", "address": "Hofuf Saudi Arabia Asia" }, "geometry": { "type": "Point", "coordinates": [ 49.587510000000101, 25.3682400000001 ] } },
{ "type": "Feature", "properties": { "continent": "Asia", "country": "Singapore", "place": "Singapore", "address": "Singapore Singapore Asia" }, "geometry": { "type": "Point", "coordinates": [ 103.85211, 1.29041 ] } },
{ "type": "Feature", "properties": { "continent": "Asia", "country": "Singapore", "place": "Ladang", "address": "Ladang Singapore Asia" }, "geometry": { "type": "Point", "coordinates": [ 103.85356, 1.29044 ] } },
{ "type": "Feature", "properties": { "continent": "Asia", "country": "South Korea", "place": "Seoul", "address": "Seoul South Korea Asia" }, "geometry": { "type": "Point", "coordinates": [ 126.97783, 37.568260000000102 ] } },
{ "type": "Feature", "properties": { "continent": "Asia", "country": "Sri Lanka", "place": "Colombo", "address": "Colombo Sri Lanka Asia" }, "geometry": { "type": "Point", "coordinates": [ 79.84588, 6.93243 ] } },
{ "type": "Feature", "properties": { "continent": "Asia", "country": "Sri Lanka", "place": "Kandy", "address": "Kandy Sri Lanka Asia" }, "geometry": { "type": "Point", "coordinates": [ 80.63867, 7.29497 ] } },
{ "type": "Feature", "properties": { "continent": "Asia", "country": "Sri Lanka", "place": "Bentota", "address": "Bentota Sri Lanka Asia" }, "geometry": { "type": "Point", "coordinates": [ 79.9948, 6.4254 ] } },
{ "type": "Feature", "properties": { "continent": "Asia", "country": "Sri Lanka", "place": "Nuwara Eliya", "address": "Nuwara Eliya Sri Lanka Asia" }, "geometry": { "type": "Point", "coordinates": [ 80.76449, 6.97375 ] } },
{ "type": "Feature", "properties": { "continent": "Asia", "country": "Sri Lanka", "place": "Batticaloa", "address": "Batticaloa Sri Lanka Asia" }, "geometry": { "type": "Point", "coordinates": [ 81.6955, 7.72066 ] } },
{ "type": "Feature", "properties": { "continent": "Asia", "country": "Tajikistan", "place": "Dushanbe", "address": "Dushanbe Tajikistan Asia" }, "geometry": { "type": "Point", "coordinates": [ 68.77905, 38.5357500000001 ] } },
{ "type": "Feature", "properties": { "continent": "Asia", "country": "Tajikistan", "place": "Khujand", "address": "Khujand Tajikistan Asia" }, "geometry": { "type": "Point", "coordinates": [ 69.62216, 40.28256 ] } },
{ "type": "Feature", "properties": { "continent": "Asia", "country": "Thailand", "place": "Bangkok", "address": "Bangkok Thailand Asia" }, "geometry": { "type": "Point", "coordinates": [ 100.48196, 13.707180000000101 ] } },
{ "type": "Feature", "properties": { "continent": "Asia", "country": "Thailand", "place": "Phuket", "address": "Phuket Thailand Asia" }, "geometry": { "type": "Point", "coordinates": [ 98.39321, 7.88647 ] } },
{ "type": "Feature", "properties": { "continent": "Asia", "country": "Thailand", "place": "Hat Yai", "address": "Hat Yai Thailand Asia" }, "geometry": { "type": "Point", "coordinates": [ 100.457235949671002, 7.00205919690524 ] } },
{ "type": "Feature", "properties": { "continent": "Asia", "country": "Thailand", "place": "Pak Kret", "address": "Pak Kret Thailand Asia" }, "geometry": { "type": "Point", "coordinates": [ 100.53305, 13.9032300000001 ] } },
{ "type": "Feature", "properties": { "continent": "Asia", "country": "Thailand", "place": "Nakhon Ratchasima", "address": "Nakhon Ratchasima Thailand Asia" }, "geometry": { "type": "Point", "coordinates": [ 102.11028, 14.996730000000101 ] } },
{ "type": "Feature", "properties": { "continent": "Asia", "country": "Turkey", "place": "Istanbul", "address": "Istanbul Turkey Asia" }, "geometry": { "type": "Point", "coordinates": [ 28.9960400000001, 41.04779 ] } },
{ "type": "Feature", "properties": { "continent": "Asia", "country": "Turkey", "place": "Ankara", "address": "Ankara Turkey Asia" }, "geometry": { "type": "Point", "coordinates": [ 32.857955090169803, 40.124045044707103 ] } },
{ "type": "Feature", "properties": { "continent": "Asia", "country": "Turkey", "place": "Izmir", "address": "Izmir Turkey Asia" }, "geometry": { "type": "Point", "coordinates": [ 27.99958008714, 38.1113950270747 ] } },
{ "type": "Feature", "properties": { "continent": "Asia", "country": "Turkey", "place": "Bursa", "address": "Bursa Turkey Asia" }, "geometry": { "type": "Point", "coordinates": [ 29.0439900000001, 40.20284 ] } },
{ "type": "Feature", "properties": { "continent": "Asia", "country": "Turkey", "place": "Antalya", "address": "Antalya Turkey Asia" }, "geometry": { "type": "Point", "coordinates": [ 30.70923, 36.87895 ] } },
{ "type": "Feature", "properties": { "continent": "Asia", "country": "Uzbekistan", "place": "Tashkent", "address": "Tashkent Uzbekistan Asia" }, "geometry": { "type": "Point", "coordinates": [ 69.24129, 41.325670000000102 ] } },
{ "type": "Feature", "properties": { "continent": "Asia", "country": "Uzbekistan", "place": "Kokand", "address": "Kokand Uzbekistan Asia" }, "geometry": { "type": "Point", "coordinates": [ 70.9425, 40.5286100000001 ] } },
{ "type": "Feature", "properties": { "continent": "Asia", "country": "Uzbekistan", "place": "Namangan", "address": "Namangan Uzbekistan Asia" }, "geometry": { "type": "Point", "coordinates": [ 71.24784, 40.99747 ] } },
{ "type": "Feature", "properties": { "continent": "Asia", "country": "Uzbekistan", "place": "Andijan", "address": "Andijan Uzbekistan Asia" }, "geometry": { "type": "Point", "coordinates": [ 72.344040000000106, 40.75154 ] } },
{ "type": "Feature", "properties": { "continent": "Asia", "country": "Uzbekistan", "place": "Samarkand", "address": "Samarkand Uzbekistan Asia" }, "geometry": { "type": "Point", "coordinates": [ 66.975840000000105, 39.65866 ] } },
{ "type": "Feature", "properties": { "continent": "Asia", "country": "Vietnam", "place": "Ho Chi Minh City", "address": "Ho Chi Minh City Vietnam Asia" }, "geometry": { "type": "Point", "coordinates": [ 106.61859, 10.80124 ] } },
{ "type": "Feature", "properties": { "continent": "Asia", "country": "Vietnam", "place": "Hanoi", "address": "Hanoi Vietnam Asia" }, "geometry": { "type": "Point", "coordinates": [ 105.85464, 21.0288800000001 ] } },
{ "type": "Feature", "properties": { "continent": "Asia", "country": "Vietnam", "place": "Hải Phòng", "address": "Hải Phòng Vietnam Asia" }, "geometry": { "type": "Point", "coordinates": [ 106.70225, 20.83291 ] } },
{ "type": "Feature", "properties": { "continent": "Asia", "country": "Vietnam", "place": "Haiphong", "address": "Haiphong Vietnam Asia" }, "geometry": { "type": "Point", "coordinates": [ 106.70225, 20.83291 ] } },
{ "type": "Feature", "properties": { "continent": "Asia", "country": "Vietnam", "place": "Vung Tau", "address": "Vung Tau Vietnam Asia" }, "geometry": { "type": "Point", "coordinates": [ 107.08956, 10.33331 ] } },
{ "type": "Feature", "properties": { "continent": "Europe", "country": "Albania", "place": "Tirana", "address": "Tirana Albania Europe" }, "geometry": { "type": "Point", "coordinates": [ 19.762489183051901, 41.366245745765099 ] } },
{ "type": "Feature", "properties": { "continent": "Europe", "country": "Albania", "place": "Durrës", "address": "Durrës Albania Europe" }, "geometry": { "type": "Point", "coordinates": [ 19.45908, 41.32179 ] } },
{ "type": "Feature", "properties": { "continent": "Europe", "country": "Albania", "place": "Posta Elbasan", "address": "Posta Elbasan Albania Europe" }, "geometry": { "type": "Point", "coordinates": [ 20.08189, 41.11134 ] } },
{ "type": "Feature", "properties": { "continent": "Europe", "country": "Albania", "place": "Vlora", "address": "Vlora Albania Europe" }, "geometry": { "type": "Point", "coordinates": [ 19.487860000000101, 40.47666 ] } },
{ "type": "Feature", "properties": { "continent": "Europe", "country": "Albania", "place": "Korçë", "address": "Korçë Albania Europe" }, "geometry": { "type": "Point", "coordinates": [ 20.777080000000101, 40.61566 ] } },
{ "type": "Feature", "properties": { "continent": "Europe", "country": "Armenia", "place": "Yerevan", "address": "Yerevan Armenia Europe" }, "geometry": { "type": "Point", "coordinates": [ 44.513, 40.178710000000102 ] } },
{ "type": "Feature", "properties": { "continent": "Europe", "country": "Armenia", "place": "Gyumri", "address": "Gyumri Armenia Europe" }, "geometry": { "type": "Point", "coordinates": [ 43.846420000000101, 40.79346 ] } },
{ "type": "Feature", "properties": { "continent": "Europe", "country": "Armenia", "place": "Vanadzor", "address": "Vanadzor Armenia Europe" }, "geometry": { "type": "Point", "coordinates": [ 44.49572, 40.811770000000102 ] } },
{ "type": "Feature", "properties": { "continent": "Europe", "country": "Armenia", "place": "Vagharshapat", "address": "Vagharshapat Armenia Europe" }, "geometry": { "type": "Point", "coordinates": [ 44.2894900000001, 40.17106 ] } },
{ "type": "Feature", "properties": { "continent": "Europe", "country": "Azerbaijan", "place": "Baku", "address": "Baku Azerbaijan Europe" }, "geometry": { "type": "Point", "coordinates": [ 49.87222, 40.4106600000001 ] } },
{ "type": "Feature", "properties": { "continent": "Europe", "country": "Azerbaijan", "place": "Sumgayit", "address": "Sumgayit Azerbaijan Europe" }, "geometry": { "type": "Point", "coordinates": [ 49.607080000000103, 40.61366 ] } },
{ "type": "Feature", "properties": { "continent": "Europe", "country": "Azerbaijan", "place": "Binagadi", "address": "Binagadi Azerbaijan Europe" }, "geometry": { "type": "Point", "coordinates": [ 49.8280600000001, 40.466230000000103 ] } },
{ "type": "Feature", "properties": { "continent": "Europe", "country": "Belgium", "place": "Antwerp", "address": "Antwerp Belgium Europe" }, "geometry": { "type": "Point", "coordinates": [ 4.61080035214428, 51.210079016861698 ] } },
{ "type": "Feature", "properties": { "continent": "Europe", "country": "Belgium", "place": "Ghent", "address": "Ghent Belgium Europe" }, "geometry": { "type": "Point", "coordinates": [ 3.69910708851319, 51.045391972342799 ] } },
{ "type": "Feature", "properties": { "continent": "Europe", "country": "Belgium", "place": "Charleroi", "address": "Charleroi Belgium Europe" }, "geometry": { "type": "Point", "coordinates": [ 4.38805, 50.39246 ] } },
{ "type": "Feature", "properties": { "continent": "Europe", "country": "Belgium", "place": "Liège", "address": "Liège Belgium Europe" }, "geometry": { "type": "Point", "coordinates": [ 5.86035, 50.592570000000102 ] } },
{ "type": "Feature", "properties": { "continent": "Europe", "country": "Belgium", "place": "Brussels", "address": "Brussels Belgium Europe" }, "geometry": { "type": "Point", "coordinates": [ 4.39308, 50.87584 ] } },
{ "type": "Feature", "properties": { "continent": "Europe", "country": "Bosnia and Herzegovina", "place": "Sarajevo", "address": "Sarajevo Bosnia and Herzegovina Europe" }, "geometry": { "type": "Point", "coordinates": [ 18.43582, 43.85946 ] } },
{ "type": "Feature", "properties": { "continent": "Europe", "country": "Bosnia and Herzegovina", "place": "Banja Luka", "address": "Banja Luka Bosnia and Herzegovina Europe" }, "geometry": { "type": "Point", "coordinates": [ 17.1894, 44.7705500000001 ] } },
{ "type": "Feature", "properties": { "continent": "Europe", "country": "Bosnia and Herzegovina", "place": "Tuzla", "address": "Tuzla Bosnia and Herzegovina Europe" }, "geometry": { "type": "Point", "coordinates": [ 18.68245, 44.53541 ] } },
{ "type": "Feature", "properties": { "continent": "Europe", "country": "Bosnia and Herzegovina", "place": "Mostar", "address": "Mostar Bosnia and Herzegovina Europe" }, "geometry": { "type": "Point", "coordinates": [ 17.82135, 43.32799 ] } },
{ "type": "Feature", "properties": { "continent": "Europe", "country": "Bulgaria", "place": "Sofia", "address": "Sofia Bulgaria Europe" }, "geometry": { "type": "Point", "coordinates": [ 23.208936188121701, 42.767560256655102 ] } },
{ "type": "Feature", "properties": { "continent": "Europe", "country": "Bulgaria", "place": "Plovdiv", "address": "Plovdiv Bulgaria Europe" }, "geometry": { "type": "Point", "coordinates": [ 24.7138190671538, 42.231177537566403 ] } },
{ "type": "Feature", "properties": { "continent": "Europe", "country": "Bulgaria", "place": "Varna", "address": "Varna Bulgaria Europe" }, "geometry": { "type": "Point", "coordinates": [ 27.92116, 43.204320000000102 ] } },
{ "type": "Feature", "properties": { "continent": "Europe", "country": "Bulgaria", "place": "Burgas", "address": "Burgas Bulgaria Europe" }, "geometry": { "type": "Point", "coordinates": [ 28.030201012311501, 41.983464178390797 ] } },
{ "type": "Feature", "properties": { "continent": "Europe", "country": "Bulgaria", "place": "Ruse", "address": "Ruse Bulgaria Europe" }, "geometry": { "type": "Point", "coordinates": [ 26.01549, 43.86338 ] } },
{ "type": "Feature", "properties": { "continent": "Europe", "country": "Croatia", "place": "Zagreb", "address": "Zagreb Croatia Europe" }, "geometry": { "type": "Point", "coordinates": [ 15.949, 45.813400000000101 ] } },
{ "type": "Feature", "properties": { "continent": "Europe", "country": "Croatia", "place": "Split", "address": "Split Croatia Europe" }, "geometry": { "type": "Point", "coordinates": [ 16.44273, 43.50275 ] } },
{ "type": "Feature", "properties": { "continent": "Europe", "country": "Croatia", "place": "Rijeka", "address": "Rijeka Croatia Europe" }, "geometry": { "type": "Point", "coordinates": [ 14.44715, 45.326720000000101 ] } },
{ "type": "Feature", "properties": { "continent": "Europe", "country": "Croatia", "place": "Osijek", "address": "Osijek Croatia Europe" }, "geometry": { "type": "Point", "coordinates": [ 18.67625, 45.55846 ] } },
{ "type": "Feature", "properties": { "continent": "Europe", "country": "Croatia", "place": "Zadar", "address": "Zadar Croatia Europe" }, "geometry": { "type": "Point", "coordinates": [ 15.2272300000001, 44.11678 ] } },
{ "type": "Feature", "properties": { "continent": "Europe", "country": "Cyprus", "place": "Nicosia", "address": "Nicosia Cyprus Europe" }, "geometry": { "type": "Point", "coordinates": [ 33.36184, 35.17148 ] } },
{ "type": "Feature", "properties": { "continent": "Europe", "country": "Cyprus", "place": "Limassol", "address": "Limassol Cyprus Europe" }, "geometry": { "type": "Point", "coordinates": [ 33.04275, 34.67445 ] } },
{ "type": "Feature", "properties": { "continent": "Europe", "country": "Cyprus", "place": "Larnaca", "address": "Larnaca Cyprus Europe" }, "geometry": { "type": "Point", "coordinates": [ 33.61974, 34.9161 ] } },
{ "type": "Feature", "properties": { "continent": "Europe", "country": "Cyprus", "place": "Famagusta", "address": "Famagusta Cyprus Europe" }, "geometry": { "type": "Point", "coordinates": [ 33.95, 35.125 ] } },
{ "type": "Feature", "properties": { "continent": "Europe", "country": "Cyprus", "place": "Paphos", "address": "Paphos Cyprus Europe" }, "geometry": { "type": "Point", "coordinates": [ 32.416670000000103, 34.76667 ] } },
{ "type": "Feature", "properties": { "continent": "Europe", "country": "Czech Republic", "place": "Prague", "address": "Prague Czech Republic Europe" }, "geometry": { "type": "Point", "coordinates": [ 14.4330200000001, 50.07913 ] } },
{ "type": "Feature", "properties": { "continent": "Europe", "country": "Czech Republic", "place": "Ostrava", "address": "Ostrava Czech Republic Europe" }, "geometry": { "type": "Point", "coordinates": [ 18.28877, 49.83937 ] } },
{ "type": "Feature", "properties": { "continent": "Europe", "country": "Czech Republic", "place": "Brno", "address": "Brno Czech Republic Europe" }, "geometry": { "type": "Point", "coordinates": [ 16.6036800000001, 49.197270000000103 ] } },
{ "type": "Feature", "properties": { "continent": "Europe", "country": "Czech Republic", "place": "Plzeň", "address": "Plzeň Czech Republic Europe" }, "geometry": { "type": "Point", "coordinates": [ 13.3840500000001, 49.746400000000101 ] } },
{ "type": "Feature", "properties": { "continent": "Europe", "country": "Czech Republic", "place": "Olomouc", "address": "Olomouc Czech Republic Europe" }, "geometry": { "type": "Point", "coordinates": [ 17.249030000000101, 49.59242 ] } },
{ "type": "Feature", "properties": { "continent": "Europe", "country": "Denmark", "place": "Copenhagen", "address": "Copenhagen Denmark Europe" }, "geometry": { "type": "Point", "coordinates": [ 12.5792900000001, 55.67866 ] } },
{ "type": "Feature", "properties": { "continent": "Europe", "country": "Denmark", "place": "Aarhus", "address": "Aarhus Denmark Europe" }, "geometry": { "type": "Point", "coordinates": [ 10.2120590602314, 56.153093834540599 ] } },
{ "type": "Feature", "properties": { "continent": "Europe", "country": "Denmark", "place": "Odense", "address": "Odense Denmark Europe" }, "geometry": { "type": "Point", "coordinates": [ 10.390780000000101, 55.396180000000101 ] } },
{ "type": "Feature", "properties": { "continent": "Europe", "country": "Denmark", "place": "Aalborg", "address": "Aalborg Denmark Europe" }, "geometry": { "type": "Point", "coordinates": [ 9.91257, 57.04441 ] } },
{ "type": "Feature", "properties": { "continent": "Europe", "country": "Denmark", "place": "Randers", "address": "Randers Denmark Europe" }, "geometry": { "type": "Point", "coordinates": [ 9.89200018746666, 56.542981754234397 ] } },
{ "type": "Feature", "properties": { "continent": "Europe", "country": "Estonia", "place": "Tallinn", "address": "Tallinn Estonia Europe" }, "geometry": { "type": "Point", "coordinates": [ 24.75258, 59.43642 ] } },
{ "type": "Feature", "properties": { "continent": "Europe", "country": "Estonia", "place": "Tartu", "address": "Tartu Estonia Europe" }, "geometry": { "type": "Point", "coordinates": [ 26.725730000000102, 58.3762100000001 ] } },
{ "type": "Feature", "properties": { "continent": "Europe", "country": "Estonia", "place": "Pärnu", "address": "Pärnu Estonia Europe" }, "geometry": { "type": "Point", "coordinates": [ 24.49789, 58.38592 ] } },
{ "type": "Feature", "properties": { "continent": "Europe", "country": "Faroe Islands", "place": "Tórshavn", "address": "Tórshavn Faroe Islands Europe" }, "geometry": { "type": "Point", "coordinates": [ -6.7728, 62.009700000000102 ] } },
{ "type": "Feature", "properties": { "continent": "Europe", "country": "Faroe Islands", "place": "Vágur", "address": "Vágur Faroe Islands Europe" }, "geometry": { "type": "Point", "coordinates": [ -6.81299, 61.473570000000102 ] } },
{ "type": "Feature", "properties": { "continent": "Europe", "country": "Finland", "place": "Helsinki", "address": "Helsinki Finland Europe" }, "geometry": { "type": "Point", "coordinates": [ 24.94593, 60.16372 ] } },
{ "type": "Feature", "properties": { "continent": "Europe", "country": "Finland", "place": "Espoo", "address": "Espoo Finland Europe" }, "geometry": { "type": "Point", "coordinates": [ 24.65578, 60.20678 ] } },
{ "type": "Feature", "properties": { "continent": "Europe", "country": "Finland", "place": "Tampere", "address": "Tampere Finland Europe" }, "geometry": { "type": "Point", "coordinates": [ 23.77176, 61.498440000000102 ] } },
{ "type": "Feature", "properties": { "continent": "Europe", "country": "Finland", "place": "Vantaa", "address": "Vantaa Finland Europe" }, "geometry": { "type": "Point", "coordinates": [ 25.0295600000001, 60.28937 ] } },
{ "type": "Feature", "properties": { "continent": "Europe", "country": "Finland", "place": "Oulu", "address": "Oulu Finland Europe" }, "geometry": { "type": "Point", "coordinates": [ 25.473570000000102, 65.010350000000102 ] } },
{ "type": "Feature", "properties": { "continent": "Europe", "country": "Georgia", "place": "Tbilisi", "address": "Tbilisi Georgia Europe" }, "geometry": { "type": "Point", "coordinates": [ 44.796100000000102, 41.70907 ] } },
{ "type": "Feature", "properties": { "continent": "Europe", "country": "Georgia", "place": "Kutaisi", "address": "Kutaisi Georgia Europe" }, "geometry": { "type": "Point", "coordinates": [ 42.669420000000102, 42.25772 ] } },
{ "type": "Feature", "properties": { "continent": "Europe", "country": "Georgia", "place": "Batumi", "address": "Batumi Georgia Europe" }, "geometry": { "type": "Point", "coordinates": [ 41.645580000000102, 41.64528 ] } },
{ "type": "Feature", "properties": { "continent": "Europe", "country": "Georgia", "place": "Zugdidi", "address": "Zugdidi Georgia Europe" }, "geometry": { "type": "Point", "coordinates": [ 41.865760000000101, 42.50931 ] } },
{ "type": "Feature", "properties": { "continent": "Europe", "country": "Germany", "place": "Berlin", "address": "Berlin Germany Europe" }, "geometry": { "type": "Point", "coordinates": [ 13.31435, 52.50746 ] } },
{ "type": "Feature", "properties": { "continent": "Europe", "country": "Germany", "place": "Hamburg", "address": "Hamburg Germany Europe" }, "geometry": { "type": "Point", "coordinates": [ 9.8947, 53.56593 ] } },
{ "type": "Feature", "properties": { "continent": "Europe", "country": "Germany", "place": "Munich", "address": "Munich Germany Europe" }, "geometry": { "type": "Point", "coordinates": [ 11.55625, 48.15198 ] } },
{ "type": "Feature", "properties": { "continent": "Europe", "country": "Germany", "place": "Cologne", "address": "Cologne Germany Europe" }, "geometry": { "type": "Point", "coordinates": [ 7.06195068456528, 50.939404486385001 ] } },
{ "type": "Feature", "properties": { "continent": "Europe", "country": "Germany", "place": "Frankfurt am Main", "address": "Frankfurt am Main Germany Europe" }, "geometry": { "type": "Point", "coordinates": [ 8.67275, 50.12969 ] } },
{ "type": "Feature", "properties": { "continent": "Europe", "country": "Gibraltar", "place": "Gibraltar", "address": "Gibraltar Gibraltar Europe" }, "geometry": { "type": "Point", "coordinates": [ -5.34972631616856, 36.130225606958199 ] } },
{ "type": "Feature", "properties": { "continent": "Europe", "country": "Greece", "place": "Athens", "address": "Athens Greece Europe" }, "geometry": { "type": "Point", "coordinates": [ 23.76137, 37.992550000000101 ] } },
{ "type": "Feature", "properties": { "continent": "Europe", "country": "Greece", "place": "Thessaloniki", "address": "Thessaloniki Greece Europe" }, "geometry": { "type": "Point", "coordinates": [ 22.93825, 40.638510000000103 ] } },
{ "type": "Feature", "properties": { "continent": "Europe", "country": "Greece", "place": "Piraeus", "address": "Piraeus Greece Europe" }, "geometry": { "type": "Point", "coordinates": [ 23.63708, 37.947450000000103 ] } },
{ "type": "Feature", "properties": { "continent": "Europe", "country": "Greece", "place": "Patras", "address": "Patras Greece Europe" }, "geometry": { "type": "Point", "coordinates": [ 21.70646, 38.203420000000101 ] } },
{ "type": "Feature", "properties": { "continent": "Europe", "country": "Greece", "place": "Larissa", "address": "Larissa Greece Europe" }, "geometry": { "type": "Point", "coordinates": [ 22.42134, 39.63852 ] } },
{ "type": "Feature", "properties": { "continent": "Europe", "country": "Guernsey", "place": "Saint Peter Port", "address": "Saint Peter Port Guernsey Europe" }, "geometry": { "type": "Point", "coordinates": [ -2.53527, 49.45981 ] } },
{ "type": "Feature", "properties": { "continent": "Europe", "country": "Guernsey", "place": "The Bridge", "address": "The Bridge Guernsey Europe" }, "geometry": { "type": "Point", "coordinates": [ -2.52167, 49.483060000000101 ] } },
{ "type": "Feature", "properties": { "continent": "Europe", "country": "Guernsey", "place": "St Anne", "address": "St Anne Guernsey Europe" }, "geometry": { "type": "Point", "coordinates": [ -2.20417, 49.715 ] } },
{ "type": "Feature", "properties": { "continent": "Europe", "country": "Hungary", "place": "Budapest", "address": "Budapest Hungary Europe" }, "geometry": { "type": "Point", "coordinates": [ 19.121440555661099, 47.3814715740913 ] } },
{ "type": "Feature", "properties": { "continent": "Europe", "country": "Hungary", "place": "Debrecen", "address": "Debrecen Hungary Europe" }, "geometry": { "type": "Point", "coordinates": [ 21.6190800000001, 47.53439 ] } },
{ "type": "Feature", "properties": { "continent": "Europe", "country": "Hungary", "place": "Szeged", "address": "Szeged Hungary Europe" }, "geometry": { "type": "Point", "coordinates": [ 20.14856, 46.2544800000001 ] } },
{ "type": "Feature", "properties": { "continent": "Europe", "country": "Hungary", "place": "Miskolc", "address": "Miskolc Hungary Europe" },